{
"type": "FeatureCollection",
"name": "wuhan_trans_2015",
"crs": { "type": "name", "properties": { "name": "urn:ogc:def:crs:OGC:1.3:CRS84" } },
"features": [
{ "type": "Feature", "properties": { "osm_id": "276457299", "code": 5621, "fclass": "bus_stop", "name": "高新四路邬家山站" }, "geometry": { "type": "Point", "coordinates": [ 114.4372384, 30.4550082 ] } },
{ "type": "Feature", "properties": { "osm_id": "286084960", "code": 5651, "fclass": "airport", "name": "武汉天河国际机场" }, "geometry": { "type": "Point", "coordinates": [ 114.2082139, 30.7817277 ] } },
{ "type": "Feature", "properties": { "osm_id": "299840306", "code": 5661, "fclass": "ferry_terminal", "name": null }, "geometry": { "type": "Point", "coordinates": [ 114.1361328, 30.3591048 ] } },
{ "type": "Feature", "properties": { "osm_id": "317003597", "code": 5621, "fclass": "bus_stop", "name": "民生路花楼街站" }, "geometry": { "type": "Point", "coordinates": [ 114.2849238, 30.5790219 ] } },
{ "type": "Feature", "properties": { "osm_id": "317004771", "code": 5621, "fclass": "bus_stop", "name": "长江大桥汉阳桥头站" }, "geometry": { "type": "Point", "coordinates": [ 114.2725753, 30.5570768 ] } },
{ "type": "Feature", "properties": { "osm_id": "317750134", "code": 5601, "fclass": "railway_station", "name": "武昌" }, "geometry": { "type": "Point", "coordinates": [ 114.3124783, 30.5309105 ] } },
{ "type": "Feature", "properties": { "osm_id": "460331757", "code": 5601, "fclass": "railway_station", "name": "土地堂" }, "geometry": { "type": "Point", "coordinates": [ 114.322458, 30.2042774 ] } },
{ "type": "Feature", "properties": { "osm_id": "579971406", "code": 5601, "fclass": "railway_station", "name": "武汉" }, "geometry": { "type": "Point", "coordinates": [ 114.4187137, 30.6093955 ] } },
{ "type": "Feature", "properties": { "osm_id": "581703681", "code": 5601, "fclass": "railway_station", "name": "乌龙泉东" }, "geometry": { "type": "Point", "coordinates": [ 114.3567765, 30.2018478 ] } },
{ "type": "Feature", "properties": { "osm_id": "582350151", "code": 5601, "fclass": "railway_station", "name": "贺胜桥" }, "geometry": { "type": "Point", "coordinates": [ 114.3542404, 30.0398781 ] } },
{ "type": "Feature", "properties": { "osm_id": "582350157", "code": 5601, "fclass": "railway_station", "name": "山坡" }, "geometry": { "type": "Point", "coordinates": [ 114.3435098, 30.1060205 ] } },
{ "type": "Feature", "properties": { "osm_id": "582350159", "code": 5601, "fclass": "railway_station", "name": "乌龙泉" }, "geometry": { "type": "Point", "coordinates": [ 114.325385, 30.2556281 ] } },
{ "type": "Feature", "properties": { "osm_id": "582350166", "code": 5601, "fclass": "railway_station", "name": "纸坊" }, "geometry": { "type": "Point", "coordinates": [ 114.3027348, 30.3557806 ] } },
{ "type": "Feature", "properties": { "osm_id": "582350170", "code": 5601, "fclass": "railway_station", "name": "大花岭" }, "geometry": { "type": "Point", "coordinates": [ 114.3013092, 30.4144325 ] } },
{ "type": "Feature", "properties": { "osm_id": "582350173", "code": 5601, "fclass": "railway_station", "name": "武昌南" }, "geometry": { "type": "Point", "coordinates": [ 114.2977353, 30.4785851 ] } },
{ "type": "Feature", "properties": { "osm_id": "582350176", "code": 5601, "fclass": "railway_station", "name": "余家湾" }, "geometry": { "type": "Point", "coordinates": [ 114.2973574, 30.5057159 ] } },
{ "type": "Feature", "properties": { "osm_id": "642947157", "code": 5621, "fclass": "bus_stop", "name": "552路起点站" }, "geometry": { "type": "Point", "coordinates": [ 114.270249, 30.6220825 ] } },
{ "type": "Feature", "properties": { "osm_id": "644799641", "code": 5622, "fclass": "bus_station", "name": "田园小区" }, "geometry": { "type": "Point", "coordinates": [ 114.2697217, 30.6220059 ] } },
{ "type": "Feature", "properties": { "osm_id": "644799721", "code": 5621, "fclass": "bus_stop", "name": null }, "geometry": { "type": "Point", "coordinates": [ 114.2811503, 30.6130401 ] } },
{ "type": "Feature", "properties": { "osm_id": "644799727", "code": 5621, "fclass": "bus_stop", "name": null }, "geometry": { "type": "Point", "coordinates": [ 114.2812614, 30.6127561 ] } },
{ "type": "Feature", "properties": { "osm_id": "644831794", "code": 5621, "fclass": "bus_stop", "name": null }, "geometry": { "type": "Point", "coordinates": [ 114.2474925, 30.6156888 ] } },
{ "type": "Feature", "properties": { "osm_id": "644831867", "code": 5621, "fclass": "bus_stop", "name": null }, "geometry": { "type": "Point", "coordinates": [ 114.2805091, 30.6201892 ] } },
{ "type": "Feature", "properties": { "osm_id": "644831893", "code": 5621, "fclass": "bus_stop", "name": null }, "geometry": { "type": "Point", "coordinates": [ 114.2479646, 30.6163536 ] } },
{ "type": "Feature", "properties": { "osm_id": "644831908", "code": 5621, "fclass": "bus_stop", "name": null }, "geometry": { "type": "Point", "coordinates": [ 114.2506254, 30.618588 ] } },
{ "type": "Feature", "properties": { "osm_id": "662029882", "code": 5601, "fclass": "railway_station", "name": "黄浦路站" }, "geometry": { "type": "Point", "coordinates": [ 114.3025709, 30.6106087 ] } },
{ "type": "Feature", "properties": { "osm_id": "905064610", "code": 5621, "fclass": "bus_stop", "name": "落雁路黄家大湾" }, "geometry": { "type": "Point", "coordinates": [ 114.4181237, 30.5834567 ] } },
{ "type": "Feature", "properties": { "osm_id": "905066964", "code": 5621, "fclass": "bus_stop", "name": "落雁路彭家岭" }, "geometry": { "type": "Point", "coordinates": [ 114.4238995, 30.5870985 ] } },
{ "type": "Feature", "properties": { "osm_id": "1124470904", "code": 5641, "fclass": "taxi", "name": null }, "geometry": { "type": "Point", "coordinates": [ 114.3449237, 30.4783824 ] } },
{ "type": "Feature", "properties": { "osm_id": "1124474705", "code": 5622, "fclass": "bus_station", "name": null }, "geometry": { "type": "Point", "coordinates": [ 114.415617, 30.5176684 ] } },
{ "type": "Feature", "properties": { "osm_id": "1124474705", "code": 5621, "fclass": "bus_stop", "name": null }, "geometry": { "type": "Point", "coordinates": [ 114.415617, 30.5176684 ] } },
{ "type": "Feature", "properties": { "osm_id": "1140350477", "code": 5621, "fclass": "bus_stop", "name": "南湖大道翠竹路站" }, "geometry": { "type": "Point", "coordinates": [ 114.3479182, 30.4828193 ] } },
{ "type": "Feature", "properties": { "osm_id": "1140522955", "code": 5621, "fclass": "bus_stop", "name": "高新大道五角塘站" }, "geometry": { "type": "Point", "coordinates": [ 114.4149491, 30.4986927 ] } },
{ "type": "Feature", "properties": { "osm_id": "1140523051", "code": 5621, "fclass": "bus_stop", "name": "南湖大道南湖桥站" }, "geometry": { "type": "Point", "coordinates": [ 114.3649503, 30.483796 ] } },
{ "type": "Feature", "properties": { "osm_id": "1143318895", "code": 5621, "fclass": "bus_stop", "name": "大学院南路宋徐湾站" }, "geometry": { "type": "Point", "coordinates": [ 114.3884896, 30.4533167 ] } },
{ "type": "Feature", "properties": { "osm_id": "1143750545", "code": 5621, "fclass": "bus_stop", "name": null }, "geometry": { "type": "Point", "coordinates": [ 114.4267037, 30.5163847 ] } },
{ "type": "Feature", "properties": { "osm_id": "1148772904", "code": 5621, "fclass": "bus_stop", "name": "珞狮路武工大站" }, "geometry": { "type": "Point", "coordinates": [ 114.3455613, 30.5234601 ] } },
{ "type": "Feature", "properties": { "osm_id": "1150265270", "code": 5621, "fclass": "bus_stop", "name": "民主路洪山体育馆站" }, "geometry": { "type": "Point", "coordinates": [ 114.3286338, 30.5469784 ] } },
{ "type": "Feature", "properties": { "osm_id": "1150802196", "code": 5621, "fclass": "bus_stop", "name": "龙城路民族大道口站" }, "geometry": { "type": "Point", "coordinates": [ 114.3838761, 30.4687701 ] } },
{ "type": "Feature", "properties": { "osm_id": "1150802209", "code": 5621, "fclass": "bus_stop", "name": "龙城路冯徐村站" }, "geometry": { "type": "Point", "coordinates": [ 114.3788443, 30.4675957 ] } },
{ "type": "Feature", "properties": { "osm_id": "1150841389", "code": 5621, "fclass": "bus_stop", "name": "武大园路武大园二路站" }, "geometry": { "type": "Point", "coordinates": [ 114.4017611, 30.4557399 ] } },
{ "type": "Feature", "properties": { "osm_id": "1150841416", "code": 5621, "fclass": "bus_stop", "name": "高新大道茶棚村站" }, "geometry": { "type": "Point", "coordinates": [ 114.4319633, 30.4923689 ] } },
{ "type": "Feature", "properties": { "osm_id": "1150841510", "code": 5621, "fclass": "bus_stop", "name": null }, "geometry": { "type": "Point", "coordinates": [ 114.3940801, 30.4516943 ] } },
{ "type": "Feature", "properties": { "osm_id": "1174975375", "code": 5621, "fclass": "bus_stop", "name": "光谷二路富五路站" }, "geometry": { "type": "Point", "coordinates": [ 114.4526634, 30.4250157 ] } },
{ "type": "Feature", "properties": { "osm_id": "1175018189", "code": 5621, "fclass": "bus_stop", "name": "杨桥湖大道程杨湾站" }, "geometry": { "type": "Point", "coordinates": [ 114.4257821, 30.42254 ] } },
{ "type": "Feature", "properties": { "osm_id": "1175089446", "code": 5621, "fclass": "bus_stop", "name": "藏龙大道前舒湾站" }, "geometry": { "type": "Point", "coordinates": [ 114.4033465, 30.4319613 ] } },
{ "type": "Feature", "properties": { "osm_id": "1175089470", "code": 5621, "fclass": "bus_stop", "name": "藏龙大道谭家嘴站" }, "geometry": { "type": "Point", "coordinates": [ 114.4079331, 30.4263484 ] } },
{ "type": "Feature", "properties": { "osm_id": "1175089504", "code": 5621, "fclass": "bus_stop", "name": "藏龙大道大堤湾站" }, "geometry": { "type": "Point", "coordinates": [ 114.399723, 30.4355205 ] } },
{ "type": "Feature", "properties": { "osm_id": "1175089563", "code": 5621, "fclass": "bus_stop", "name": "藏龙大道大堤湾站" }, "geometry": { "type": "Point", "coordinates": [ 114.4002968, 30.436175 ] } },
{ "type": "Feature", "properties": { "osm_id": "1175089612", "code": 5621, "fclass": "bus_stop", "name": "藏龙大道谭家嘴站" }, "geometry": { "type": "Point", "coordinates": [ 114.4077857, 30.4275186 ] } },
{ "type": "Feature", "properties": { "osm_id": "1175200611", "code": 5621, "fclass": "bus_stop", "name": "栗庙路美院藏龙岛校区站" }, "geometry": { "type": "Point", "coordinates": [ 114.4159611, 30.3989702 ] } },
{ "type": "Feature", "properties": { "osm_id": "1175200681", "code": 5621, "fclass": "bus_stop", "name": "栗庙路阳光100站" }, "geometry": { "type": "Point", "coordinates": [ 114.4097813, 30.4043373 ] } },
{ "type": "Feature", "properties": { "osm_id": "1175200731", "code": 5621, "fclass": "bus_stop", "name": "环岛路体育科技学院站" }, "geometry": { "type": "Point", "coordinates": [ 114.4309436, 30.3983039 ] } },
{ "type": "Feature", "properties": { "osm_id": "1176711646", "code": 5621, "fclass": "bus_stop", "name": "流芳老街大邱市场站" }, "geometry": { "type": "Point", "coordinates": [ 114.4471551, 30.4472491 ] } },
{ "type": "Feature", "properties": { "osm_id": "1177047550", "code": 5621, "fclass": "bus_stop", "name": "光谷大道堡湖嘴站" }, "geometry": { "type": "Point", "coordinates": [ 114.4237449, 30.4335593 ] } },
{ "type": "Feature", "properties": { "osm_id": "1177047595", "code": 5621, "fclass": "bus_stop", "name": "杨桥湖大道程杨湾站" }, "geometry": { "type": "Point", "coordinates": [ 114.4257215, 30.4226337 ] } },
{ "type": "Feature", "properties": { "osm_id": "1177175517", "code": 5621, "fclass": "bus_stop", "name": "光谷大道刘张湾站" }, "geometry": { "type": "Point", "coordinates": [ 114.4166048, 30.4394794 ] } },
{ "type": "Feature", "properties": { "osm_id": "1177175625", "code": 5621, "fclass": "bus_stop", "name": "光谷大道吴李湾站" }, "geometry": { "type": "Point", "coordinates": [ 114.4158109, 30.4443679 ] } },
{ "type": "Feature", "properties": { "osm_id": "1177175778", "code": 5621, "fclass": "bus_stop", "name": "光谷大道刘张湾站" }, "geometry": { "type": "Point", "coordinates": [ 114.4163634, 30.4397245 ] } },
{ "type": "Feature", "properties": { "osm_id": "1177175781", "code": 5621, "fclass": "bus_stop", "name": "光谷大道吴李湾站" }, "geometry": { "type": "Point", "coordinates": [ 114.4157036, 30.4441691 ] } },
{ "type": "Feature", "properties": { "osm_id": "1186764350", "code": 5621, "fclass": "bus_stop", "name": "珞喻路光谷广场站" }, "geometry": { "type": "Point", "coordinates": [ 114.3972201, 30.5090637 ] } },
{ "type": "Feature", "properties": { "osm_id": "1203947514", "code": 5621, "fclass": "bus_stop", "name": "珞喻东路叶麻店站" }, "geometry": { "type": "Point", "coordinates": [ 114.4141166, 30.5093709 ] } },
{ "type": "Feature", "properties": { "osm_id": "1214589922", "code": 5621, "fclass": "bus_stop", "name": "鲁磨路中航181站" }, "geometry": { "type": "Point", "coordinates": [ 114.3953935, 30.5183906 ] } },
{ "type": "Feature", "properties": { "osm_id": "1215715278", "code": 5621, "fclass": "bus_stop", "name": "中山路武昌火车站" }, "geometry": { "type": "Point", "coordinates": [ 114.3091715, 30.5298568 ] } },
{ "type": "Feature", "properties": { "osm_id": "1215715310", "code": 5621, "fclass": "bus_stop", "name": "中山路武昌火车站" }, "geometry": { "type": "Point", "coordinates": [ 114.3097455, 30.5321209 ] } },
{ "type": "Feature", "properties": { "osm_id": "1215717611", "code": 5621, "fclass": "bus_stop", "name": "武昌火车站东广场站" }, "geometry": { "type": "Point", "coordinates": [ 114.3130779, 30.5295994 ] } },
{ "type": "Feature", "properties": { "osm_id": "1215717612", "code": 5622, "fclass": "bus_station", "name": "武昌火车站综合体" }, "geometry": { "type": "Point", "coordinates": [ 114.3120948, 30.5330171 ] } },
{ "type": "Feature", "properties": { "osm_id": "1215740551", "code": 5621, "fclass": "bus_stop", "name": "黄鹤楼站" }, "geometry": { "type": "Point", "coordinates": [ 114.299365, 30.5455658 ] } },
{ "type": "Feature", "properties": { "osm_id": "1215740558", "code": 5621, "fclass": "bus_stop", "name": "武珞路阅马场站" }, "geometry": { "type": "Point", "coordinates": [ 114.304059, 30.5426738 ] } },
{ "type": "Feature", "properties": { "osm_id": "1215740581", "code": 5621, "fclass": "bus_stop", "name": "武珞路阅马场站" }, "geometry": { "type": "Point", "coordinates": [ 114.302514, 30.5431404 ] } },
{ "type": "Feature", "properties": { "osm_id": "1215740609", "code": 5621, "fclass": "bus_stop", "name": "阅马场站" }, "geometry": { "type": "Point", "coordinates": [ 114.3006686, 30.5419438 ] } },
{ "type": "Feature", "properties": { "osm_id": "1215740655", "code": 5621, "fclass": "bus_stop", "name": "黄鹤楼南路站" }, "geometry": { "type": "Point", "coordinates": [ 114.2960555, 30.5434127 ] } },
{ "type": "Feature", "properties": { "osm_id": "1215750738", "code": 5621, "fclass": "bus_stop", "name": "武珞路龙华寺站" }, "geometry": { "type": "Point", "coordinates": [ 114.3095954, 30.5426612 ] } },
{ "type": "Feature", "properties": { "osm_id": "1215754982", "code": 5621, "fclass": "bus_stop", "name": "民主路司门口站" }, "geometry": { "type": "Point", "coordinates": [ 114.2949589, 30.5484982 ] } },
{ "type": "Feature", "properties": { "osm_id": "1215762046", "code": 5621, "fclass": "bus_stop", "name": "民主路胭脂路站" }, "geometry": { "type": "Point", "coordinates": [ 114.3028737, 30.5473786 ] } },
{ "type": "Feature", "properties": { "osm_id": "1218844844", "code": 5621, "fclass": "bus_stop", "name": "中华路站" }, "geometry": { "type": "Point", "coordinates": [ 114.2923326, 30.552161 ] } },
{ "type": "Feature", "properties": { "osm_id": "1218893559", "code": 5621, "fclass": "bus_stop", "name": "临江大道大堤口站" }, "geometry": { "type": "Point", "coordinates": [ 114.293491, 30.5572721 ] } },
{ "type": "Feature", "properties": { "osm_id": "1218893560", "code": 5621, "fclass": "bus_stop", "name": "解放路司门口站" }, "geometry": { "type": "Point", "coordinates": [ 114.2957884, 30.5537772 ] } },
{ "type": "Feature", "properties": { "osm_id": "1218899346", "code": 5621, "fclass": "bus_stop", "name": "佳园路珞喻东路口站" }, "geometry": { "type": "Point", "coordinates": [ 114.4257582, 30.5057944 ] } },
{ "type": "Feature", "properties": { "osm_id": "1218901078", "code": 5621, "fclass": "bus_stop", "name": "中山路小东门站" }, "geometry": { "type": "Point", "coordinates": [ 114.3131748, 30.5482782 ] } },
{ "type": "Feature", "properties": { "osm_id": "1218901156", "code": 5621, "fclass": "bus_stop", "name": "民主路武警医院站" }, "geometry": { "type": "Point", "coordinates": [ 114.307822, 30.5461693 ] } },
{ "type": "Feature", "properties": { "osm_id": "1218901172", "code": 5621, "fclass": "bus_stop", "name": "民主路宜家装饰广场站" }, "geometry": { "type": "Point", "coordinates": [ 114.3122151, 30.546013 ] } },
{ "type": "Feature", "properties": { "osm_id": "1220351047", "code": 5661, "fclass": "ferry_terminal", "name": "中华路码头" }, "geometry": { "type": "Point", "coordinates": [ 114.2895806, 30.552999 ] } },
{ "type": "Feature", "properties": { "osm_id": "1220351485", "code": 5661, "fclass": "ferry_terminal", "name": "汉阳门码头" }, "geometry": { "type": "Point", "coordinates": [ 114.2885828, 30.5512112 ] } },
{ "type": "Feature", "properties": { "osm_id": "1220521090", "code": 5621, "fclass": "bus_stop", "name": "临江大道汉阳门站" }, "geometry": { "type": "Point", "coordinates": [ 114.2893093, 30.5524252 ] } },
{ "type": "Feature", "properties": { "osm_id": "1230843811", "code": 5621, "fclass": "bus_stop", "name": "解放大道航空路站" }, "geometry": { "type": "Point", "coordinates": [ 114.2584189, 30.5818071 ] } },
{ "type": "Feature", "properties": { "osm_id": "1230844190", "code": 5621, "fclass": "bus_stop", "name": "解放大道航空路站" }, "geometry": { "type": "Point", "coordinates": [ 114.2586764, 30.5815716 ] } },
{ "type": "Feature", "properties": { "osm_id": "1230844210", "code": 5621, "fclass": "bus_stop", "name": "解放大道中山公园站" }, "geometry": { "type": "Point", "coordinates": [ 114.2678818, 30.5844072 ] } },
{ "type": "Feature", "properties": { "osm_id": "1233306614", "code": 5621, "fclass": "bus_stop", "name": "日月星城小区站" }, "geometry": { "type": "Point", "coordinates": [ 114.2782681, 30.6352186 ] } },
{ "type": "Feature", "properties": { "osm_id": "1233306659", "code": 5621, "fclass": "bus_stop", "name": "兴业路·威汉汽车站" }, "geometry": { "type": "Point", "coordinates": [ 114.272893, 30.6329938 ] } },
{ "type": "Feature", "properties": { "osm_id": "1233306878", "code": 5621, "fclass": "bus_stop", "name": "石桥路塔子湖西路站" }, "geometry": { "type": "Point", "coordinates": [ 114.2722426, 30.6317316 ] } },
{ "type": "Feature", "properties": { "osm_id": "1233322874", "code": 5621, "fclass": "bus_stop", "name": "武汉老年大学站" }, "geometry": { "type": "Point", "coordinates": [ 114.2820286, 30.6414081 ] } },
{ "type": "Feature", "properties": { "osm_id": "1233322982", "code": 5621, "fclass": "bus_stop", "name": "石桥路站" }, "geometry": { "type": "Point", "coordinates": [ 114.2700177, 30.6317937 ] } },
{ "type": "Feature", "properties": { "osm_id": "1234450761", "code": 5621, "fclass": "bus_stop", "name": "上街村站" }, "geometry": { "type": "Point", "coordinates": [ 114.6196178, 30.5335848 ] } },
{ "type": "Feature", "properties": { "osm_id": "1235648681", "code": 5601, "fclass": "railway_station", "name": "何刘" }, "geometry": { "type": "Point", "coordinates": [ 114.4909772, 30.5310527 ] } },
{ "type": "Feature", "properties": { "osm_id": "1235648697", "code": 5601, "fclass": "railway_station", "name": "新店" }, "geometry": { "type": "Point", "coordinates": [ 114.5927131, 30.5194952 ] } },
{ "type": "Feature", "properties": { "osm_id": "1236978009", "code": 5621, "fclass": "bus_stop", "name": "316国道金鸡山站" }, "geometry": { "type": "Point", "coordinates": [ 114.5707185, 30.5154666 ] } },
{ "type": "Feature", "properties": { "osm_id": "1252118415", "code": 5621, "fclass": "bus_stop", "name": "雄楚大道华城新都站" }, "geometry": { "type": "Point", "coordinates": [ 114.3869849, 30.5005014 ] } },
{ "type": "Feature", "properties": { "osm_id": "1252118442", "code": 5621, "fclass": "bus_stop", "name": "雄楚大道民族大道口站" }, "geometry": { "type": "Point", "coordinates": [ 114.3907629, 30.5002871 ] } },
{ "type": "Feature", "properties": { "osm_id": "1252118489", "code": 5621, "fclass": "bus_stop", "name": "雄楚大道关西小区站" }, "geometry": { "type": "Point", "coordinates": [ 114.3820094, 30.5027801 ] } },
{ "type": "Feature", "properties": { "osm_id": "1252118622", "code": 5621, "fclass": "bus_stop", "name": "雄楚大道华城新都站" }, "geometry": { "type": "Point", "coordinates": [ 114.3873241, 30.5007092 ] } },
{ "type": "Feature", "properties": { "osm_id": "1252153311", "code": 5621, "fclass": "bus_stop", "name": "虎泉街化工学院站" }, "geometry": { "type": "Point", "coordinates": [ 114.3855175, 30.5071342 ] } },
{ "type": "Feature", "properties": { "osm_id": "1252153351", "code": 5621, "fclass": "bus_stop", "name": "虎泉街化工学院站" }, "geometry": { "type": "Point", "coordinates": [ 114.3854915, 30.5072976 ] } },
{ "type": "Feature", "properties": { "osm_id": "1252153410", "code": 5621, "fclass": "bus_stop", "name": "虎泉街杨家湾站" }, "geometry": { "type": "Point", "coordinates": [ 114.3775651, 30.5074574 ] } },
{ "type": "Feature", "properties": { "osm_id": "1252153416", "code": 5621, "fclass": "bus_stop", "name": "虎泉街杨家湾站" }, "geometry": { "type": "Point", "coordinates": [ 114.3775517, 30.507395 ] } },
{ "type": "Feature", "properties": { "osm_id": "1252205409", "code": 5621, "fclass": "bus_stop", "name": "雄楚大道杨家湾站" }, "geometry": { "type": "Point", "coordinates": [ 114.3749372, 30.5071989 ] } },
{ "type": "Feature", "properties": { "osm_id": "1252221312", "code": 5621, "fclass": "bus_stop", "name": "民族大道光谷广场站" }, "geometry": { "type": "Point", "coordinates": [ 114.3935476, 30.5063988 ] } },
{ "type": "Feature", "properties": { "osm_id": "1252221324", "code": 5621, "fclass": "bus_stop", "name": "民族大道光谷广场站" }, "geometry": { "type": "Point", "coordinates": [ 114.3932812, 30.506198 ] } },
{ "type": "Feature", "properties": { "osm_id": "1270124012", "code": 5601, "fclass": "railway_station", "name": "流芳" }, "geometry": { "type": "Point", "coordinates": [ 114.4249068, 30.4857865 ] } },
{ "type": "Feature", "properties": { "osm_id": "1270140839", "code": 5621, "fclass": "bus_stop", "name": "民权路花楼街站" }, "geometry": { "type": "Point", "coordinates": [ 114.283372, 30.5746734 ] } },
{ "type": "Feature", "properties": { "osm_id": "1270141946", "code": 5621, "fclass": "bus_stop", "name": "三民路站" }, "geometry": { "type": "Point", "coordinates": [ 114.280064, 30.5751201 ] } },
{ "type": "Feature", "properties": { "osm_id": "1272837663", "code": 5621, "fclass": "bus_stop", "name": "珞珈山站" }, "geometry": { "type": "Point", "coordinates": [ 114.3515715, 30.5350222 ] } },
{ "type": "Feature", "properties": { "osm_id": "1274088362", "code": 5621, "fclass": "bus_stop", "name": "珞喻东路大黄村站" }, "geometry": { "type": "Point", "coordinates": [ 114.4199152, 30.5087429 ] } },
{ "type": "Feature", "properties": { "osm_id": "1277053817", "code": 5621, "fclass": "bus_stop", "name": "佳园路创业中心站" }, "geometry": { "type": "Point", "coordinates": [ 114.4253956, 30.5023751 ] } },
{ "type": "Feature", "properties": { "osm_id": "1280137469", "code": 5621, "fclass": "bus_stop", "name": "雄楚大道民族大道口站" }, "geometry": { "type": "Point", "coordinates": [ 114.391326, 30.5005069 ] } },
{ "type": "Feature", "properties": { "osm_id": "1280137471", "code": 5621, "fclass": "bus_stop", "name": "雄楚大道关西小区站" }, "geometry": { "type": "Point", "coordinates": [ 114.3821723, 30.502966 ] } },
{ "type": "Feature", "properties": { "osm_id": "1280137490", "code": 5621, "fclass": "bus_stop", "name": "民族大道上钱村站" }, "geometry": { "type": "Point", "coordinates": [ 114.3930462, 30.5024799 ] } },
{ "type": "Feature", "properties": { "osm_id": "1280158956", "code": 5621, "fclass": "bus_stop", "name": "珞喻路光谷广场站" }, "geometry": { "type": "Point", "coordinates": [ 114.3973979, 30.5087812 ] } },
{ "type": "Feature", "properties": { "osm_id": "1280163391", "code": 5621, "fclass": "bus_stop", "name": "珞喻路省中医院站" }, "geometry": { "type": "Point", "coordinates": [ 114.401697, 30.5093944 ] } },
{ "type": "Feature", "properties": { "osm_id": "1280163395", "code": 5621, "fclass": "bus_stop", "name": "珞喻路省中医院站" }, "geometry": { "type": "Point", "coordinates": [ 114.4016481, 30.5096099 ] } },
{ "type": "Feature", "properties": { "osm_id": "1280163407", "code": 5621, "fclass": "bus_stop", "name": "珞喻路关山口站" }, "geometry": { "type": "Point", "coordinates": [ 114.4057563, 30.5099284 ] } },
{ "type": "Feature", "properties": { "osm_id": "1280163416", "code": 5621, "fclass": "bus_stop", "name": "珞喻路关山口站" }, "geometry": { "type": "Point", "coordinates": [ 114.406308, 30.5099758 ] } },
{ "type": "Feature", "properties": { "osm_id": "1282462416", "code": 5621, "fclass": "bus_stop", "name": "珞喻路广埠屯站" }, "geometry": { "type": "Point", "coordinates": [ 114.3583058, 30.5249965 ] } },
{ "type": "Feature", "properties": { "osm_id": "1282462421", "code": 5621, "fclass": "bus_stop", "name": "珞喻路广埠屯站" }, "geometry": { "type": "Point", "coordinates": [ 114.3526915, 30.5278019 ] } },
{ "type": "Feature", "properties": { "osm_id": "1282500997", "code": 5621, "fclass": "bus_stop", "name": "关山大道关山街站" }, "geometry": { "type": "Point", "coordinates": [ 114.4068249, 30.5028783 ] } },
{ "type": "Feature", "properties": { "osm_id": "1282501021", "code": 5621, "fclass": "bus_stop", "name": "关山大道汽发社区站" }, "geometry": { "type": "Point", "coordinates": [ 114.407511, 30.5073567 ] } },
{ "type": "Feature", "properties": { "osm_id": "1282501122", "code": 5621, "fclass": "bus_stop", "name": "关山大道汽发社区站" }, "geometry": { "type": "Point", "coordinates": [ 114.4074861, 30.5081723 ] } },
{ "type": "Feature", "properties": { "osm_id": "1282501124", "code": 5621, "fclass": "bus_stop", "name": "关山大道关山街站" }, "geometry": { "type": "Point", "coordinates": [ 114.4069152, 30.5025093 ] } },
{ "type": "Feature", "properties": { "osm_id": "1282501151", "code": 5621, "fclass": "bus_stop", "name": "关山大道关南小区站" }, "geometry": { "type": "Point", "coordinates": [ 114.4035958, 30.475377 ] } },
{ "type": "Feature", "properties": { "osm_id": "1282501251", "code": 5621, "fclass": "bus_stop", "name": "关山大道太阳城站" }, "geometry": { "type": "Point", "coordinates": [ 114.4056717, 30.4933508 ] } },
{ "type": "Feature", "properties": { "osm_id": "1282501404", "code": 5621, "fclass": "bus_stop", "name": "高新大道关山站" }, "geometry": { "type": "Point", "coordinates": [ 114.4075557, 30.4993727 ] } },
{ "type": "Feature", "properties": { "osm_id": "1282501420", "code": 5621, "fclass": "bus_stop", "name": "关山大道关南小区站" }, "geometry": { "type": "Point", "coordinates": [ 114.4034563, 30.4753955 ] } },
{ "type": "Feature", "properties": { "osm_id": "1282501429", "code": 5621, "fclass": "bus_stop", "name": "关山大道曙光村站" }, "geometry": { "type": "Point", "coordinates": [ 114.4046492, 30.4851136 ] } },
{ "type": "Feature", "properties": { "osm_id": "1282513687", "code": 5621, "fclass": "bus_stop", "name": "关山大道职业技术学院站" }, "geometry": { "type": "Point", "coordinates": [ 114.4051202, 30.4878673 ] } },
{ "type": "Feature", "properties": { "osm_id": "1282513690", "code": 5621, "fclass": "bus_stop", "name": "关山大道湖电社区站" }, "geometry": { "type": "Point", "coordinates": [ 114.406184, 30.4978104 ] } },
{ "type": "Feature", "properties": { "osm_id": "1282513697", "code": 5621, "fclass": "bus_stop", "name": "关山大道湖电社区站" }, "geometry": { "type": "Point", "coordinates": [ 114.4062515, 30.4971521 ] } },
{ "type": "Feature", "properties": { "osm_id": "1282513699", "code": 5621, "fclass": "bus_stop", "name": "关山大道曙光村站" }, "geometry": { "type": "Point", "coordinates": [ 114.4046869, 30.4844119 ] } },
{ "type": "Feature", "properties": { "osm_id": "1282513704", "code": 5621, "fclass": "bus_stop", "name": "关山大道职业技术学院站" }, "geometry": { "type": "Point", "coordinates": [ 114.4050513, 30.4883847 ] } },
{ "type": "Feature", "properties": { "osm_id": "1282513733", "code": 5621, "fclass": "bus_stop", "name": "关山大道太阳城站" }, "geometry": { "type": "Point", "coordinates": [ 114.4057316, 30.492832 ] } },
{ "type": "Feature", "properties": { "osm_id": "1282518407", "code": 5621, "fclass": "bus_stop", "name": "关山大道大彭村站" }, "geometry": { "type": "Point", "coordinates": [ 114.4042017, 30.4804757 ] } },
{ "type": "Feature", "properties": { "osm_id": "1282518409", "code": 5621, "fclass": "bus_stop", "name": "关山大道大彭村站" }, "geometry": { "type": "Point", "coordinates": [ 114.4040821, 30.4806435 ] } },
{ "type": "Feature", "properties": { "osm_id": "1313895281", "code": 5661, "fclass": "ferry_terminal", "name": null }, "geometry": { "type": "Point", "coordinates": [ 114.1284982, 30.3669794 ] } },
{ "type": "Feature", "properties": { "osm_id": "1369726588", "code": 5621, "fclass": "bus_stop", "name": "八一路珞珈山站" }, "geometry": { "type": "Point", "coordinates": [ 114.3554876, 30.5338199 ] } },
{ "type": "Feature", "properties": { "osm_id": "1369726590", "code": 5621, "fclass": "bus_stop", "name": "八一路珞珈山站" }, "geometry": { "type": "Point", "coordinates": [ 114.3555688, 30.5340807 ] } },
{ "type": "Feature", "properties": { "osm_id": "1370767618", "code": 5621, "fclass": "bus_stop", "name": "八一路东湖村站" }, "geometry": { "type": "Point", "coordinates": [ 114.3677705, 30.5310959 ] } },
{ "type": "Feature", "properties": { "osm_id": "1370767623", "code": 5621, "fclass": "bus_stop", "name": "八一路东湖村站" }, "geometry": { "type": "Point", "coordinates": [ 114.3681918, 30.5307928 ] } },
{ "type": "Feature", "properties": { "osm_id": "1370768019", "code": 5621, "fclass": "bus_stop", "name": "珞狮路北段站" }, "geometry": { "type": "Point", "coordinates": [ 114.3491813, 30.5328973 ] } },
{ "type": "Feature", "properties": { "osm_id": "1370768020", "code": 5621, "fclass": "bus_stop", "name": "八一路广八路站" }, "geometry": { "type": "Point", "coordinates": [ 114.3586087, 30.5328579 ] } },
{ "type": "Feature", "properties": { "osm_id": "1370768021", "code": 5621, "fclass": "bus_stop", "name": "八一路东湖新村站" }, "geometry": { "type": "Point", "coordinates": [ 114.3625493, 30.5319096 ] } },
{ "type": "Feature", "properties": { "osm_id": "1370768022", "code": 5621, "fclass": "bus_stop", "name": "八一路广八路站" }, "geometry": { "type": "Point", "coordinates": [ 114.358234, 30.5328768 ] } },
{ "type": "Feature", "properties": { "osm_id": "1370768023", "code": 5621, "fclass": "bus_stop", "name": "八一路东湖新村站" }, "geometry": { "type": "Point", "coordinates": [ 114.3619392, 30.5318894 ] } },
{ "type": "Feature", "properties": { "osm_id": "1370770742", "code": 5621, "fclass": "bus_stop", "name": "广八路邱家村站" }, "geometry": { "type": "Point", "coordinates": [ 114.3586219, 30.5297031 ] } },
{ "type": "Feature", "properties": { "osm_id": "1370793241", "code": 5621, "fclass": "bus_stop", "name": "东湖路中南医院站" }, "geometry": { "type": "Point", "coordinates": [ 114.3489536, 30.554411 ] } },
{ "type": "Feature", "properties": { "osm_id": "1370819395", "code": 5622, "fclass": "bus_station", "name": "环湖路东湖站" }, "geometry": { "type": "Point", "coordinates": [ 114.3652631, 30.5652007 ] } },
{ "type": "Feature", "properties": { "osm_id": "1370819465", "code": 5621, "fclass": "bus_stop", "name": "沿湖大道沙滩浴场站" }, "geometry": { "type": "Point", "coordinates": [ 114.389898, 30.5698777 ] } },
{ "type": "Feature", "properties": { "osm_id": "1371798820", "code": 5621, "fclass": "bus_stop", "name": "樱花园站" }, "geometry": { "type": "Point", "coordinates": [ 114.4031877, 30.5462506 ] } },
{ "type": "Feature", "properties": { "osm_id": "1371798833", "code": 5621, "fclass": "bus_stop", "name": "东湖东路磨山站" }, "geometry": { "type": "Point", "coordinates": [ 114.401308, 30.55575 ] } },
{ "type": "Feature", "properties": { "osm_id": "1371798839", "code": 5621, "fclass": "bus_stop", "name": "东湖东路梅园站" }, "geometry": { "type": "Point", "coordinates": [ 114.3988055, 30.5480282 ] } },
{ "type": "Feature", "properties": { "osm_id": "1371798868", "code": 5621, "fclass": "bus_stop", "name": "卓刀泉北路风光村站" }, "geometry": { "type": "Point", "coordinates": [ 114.371795, 30.5356396 ] } },
{ "type": "Feature", "properties": { "osm_id": "1371798890", "code": 5621, "fclass": "bus_stop", "name": "东湖南路武大工学部站" }, "geometry": { "type": "Point", "coordinates": [ 114.3604291, 30.5478855 ] } },
{ "type": "Feature", "properties": { "osm_id": "1371798933", "code": 5621, "fclass": "bus_stop", "name": "鲁磨路梅园站" }, "geometry": { "type": "Point", "coordinates": [ 114.3995598, 30.5473288 ] } },
{ "type": "Feature", "properties": { "osm_id": "1371798964", "code": 5621, "fclass": "bus_stop", "name": "东湖南路风光村站" }, "geometry": { "type": "Point", "coordinates": [ 114.3719411, 30.5371807 ] } },
{ "type": "Feature", "properties": { "osm_id": "1371798991", "code": 5621, "fclass": "bus_stop", "name": "东湖东路风光村站" }, "geometry": { "type": "Point", "coordinates": [ 114.3726379, 30.5367305 ] } },
{ "type": "Feature", "properties": { "osm_id": "1371798996", "code": 5621, "fclass": "bus_stop", "name": "东湖东路东湖医院站" }, "geometry": { "type": "Point", "coordinates": [ 114.3893936, 30.5392247 ] } },
{ "type": "Feature", "properties": { "osm_id": "1371799046", "code": 5621, "fclass": "bus_stop", "name": "东湖东路游泳池站" }, "geometry": { "type": "Point", "coordinates": [ 114.3868624, 30.5380149 ] } },
{ "type": "Feature", "properties": { "osm_id": "1371799053", "code": 5621, "fclass": "bus_stop", "name": "东湖东路梅园站" }, "geometry": { "type": "Point", "coordinates": [ 114.3985989, 30.5472544 ] } },
{ "type": "Feature", "properties": { "osm_id": "1371799064", "code": 5621, "fclass": "bus_stop", "name": "东湖南路水生所站" }, "geometry": { "type": "Point", "coordinates": [ 114.3521672, 30.5476402 ] } },
{ "type": "Feature", "properties": { "osm_id": "1371799085", "code": 5621, "fclass": "bus_stop", "name": "东湖南路凌波门站" }, "geometry": { "type": "Point", "coordinates": [ 114.3649649, 30.5457861 ] } },
{ "type": "Feature", "properties": { "osm_id": "1371799456", "code": 5622, "fclass": "bus_station", "name": "武汉植物园站" }, "geometry": { "type": "Point", "coordinates": [ 114.4142389, 30.5444686 ] } },
{ "type": "Feature", "properties": { "osm_id": "1375615676", "code": 5621, "fclass": "bus_stop", "name": "落雁路李家大湾" }, "geometry": { "type": "Point", "coordinates": [ 114.4149807, 30.5783831 ] } },
{ "type": "Feature", "properties": { "osm_id": "1375615706", "code": 5621, "fclass": "bus_stop", "name": "落雁路雁中嘴" }, "geometry": { "type": "Point", "coordinates": [ 114.4110682, 30.5687481 ] } },
{ "type": "Feature", "properties": { "osm_id": "1375615820", "code": 5621, "fclass": "bus_stop", "name": "落雁路鹅咀" }, "geometry": { "type": "Point", "coordinates": [ 114.4022975, 30.5621223 ] } },
{ "type": "Feature", "properties": { "osm_id": "1379619944", "code": 5621, "fclass": "bus_stop", "name": "茶港路站" }, "geometry": { "type": "Point", "coordinates": [ 114.3498939, 30.5393796 ] } },
{ "type": "Feature", "properties": { "osm_id": "1379619956", "code": 5621, "fclass": "bus_stop", "name": "茶港路站" }, "geometry": { "type": "Point", "coordinates": [ 114.3502714, 30.5391698 ] } },
{ "type": "Feature", "properties": { "osm_id": "1405272476", "code": 5621, "fclass": "bus_stop", "name": "梨园站" }, "geometry": { "type": "Point", "coordinates": [ 114.3679588, 30.5771218 ] } },
{ "type": "Feature", "properties": { "osm_id": "1405272480", "code": 5621, "fclass": "bus_stop", "name": "梨园广场站" }, "geometry": { "type": "Point", "coordinates": [ 114.368924, 30.5769469 ] } },
{ "type": "Feature", "properties": { "osm_id": "1406762226", "code": 5601, "fclass": "railway_station", "name": "广埠屯站" }, "geometry": { "type": "Point", "coordinates": [ 114.3584051, 30.5250133 ] } },
{ "type": "Feature", "properties": { "osm_id": "1406762272", "code": 5601, "fclass": "railway_station", "name": "街道口站" }, "geometry": { "type": "Point", "coordinates": [ 114.3453374, 30.5296526 ] } },
{ "type": "Feature", "properties": { "osm_id": "1406764653", "code": 5601, "fclass": "railway_station", "name": "光谷广场站" }, "geometry": { "type": "Point", "coordinates": [ 114.3914204, 30.5080391 ] } },
{ "type": "Feature", "properties": { "osm_id": "1406764658", "code": 5601, "fclass": "railway_station", "name": "杨家湾站" }, "geometry": { "type": "Point", "coordinates": [ 114.378528, 30.507395 ] } },
{ "type": "Feature", "properties": { "osm_id": "1406764671", "code": 5601, "fclass": "railway_station", "name": "虎泉站" }, "geometry": { "type": "Point", "coordinates": [ 114.3647982, 30.5147046 ] } },
{ "type": "Feature", "properties": { "osm_id": "1406768660", "code": 5601, "fclass": "railway_station", "name": "中南路站" }, "geometry": { "type": "Point", "coordinates": [ 114.3274149, 30.5398477 ] } },
{ "type": "Feature", "properties": { "osm_id": "1406772785", "code": 5601, "fclass": "railway_station", "name": "宝通寺站" }, "geometry": { "type": "Point", "coordinates": [ 114.3350218, 30.5329034 ] } },
{ "type": "Feature", "properties": { "osm_id": "1406772794", "code": 5621, "fclass": "bus_stop", "name": "武珞路丁字桥站" }, "geometry": { "type": "Point", "coordinates": [ 114.332644, 30.53361 ] } },
{ "type": "Feature", "properties": { "osm_id": "1406772821", "code": 5621, "fclass": "bus_stop", "name": "武珞路地铁宝通寺站" }, "geometry": { "type": "Point", "coordinates": [ 114.3358974, 30.53248 ] } },
{ "type": "Feature", "properties": { "osm_id": "1406775209", "code": 5621, "fclass": "bus_stop", "name": "珞珈山路劝业场站" }, "geometry": { "type": "Point", "coordinates": [ 114.350151, 30.5338964 ] } },
{ "type": "Feature", "properties": { "osm_id": "1406781209", "code": 5621, "fclass": "bus_stop", "name": "八一路小洪山站" }, "geometry": { "type": "Point", "coordinates": [ 114.3417416, 30.5393886 ] } },
{ "type": "Feature", "properties": { "osm_id": "1406781239", "code": 5621, "fclass": "bus_stop", "name": "八一路小洪山站" }, "geometry": { "type": "Point", "coordinates": [ 114.3417336, 30.5393332 ] } },
{ "type": "Feature", "properties": { "osm_id": "1406781240", "code": 5621, "fclass": "bus_stop", "name": "八一路洪山广场站" }, "geometry": { "type": "Point", "coordinates": [ 114.3335823, 30.5452977 ] } },
{ "type": "Feature", "properties": { "osm_id": "1406781247", "code": 5621, "fclass": "bus_stop", "name": "八一路洪山广场站" }, "geometry": { "type": "Point", "coordinates": [ 114.3333034, 30.5457805 ] } },
{ "type": "Feature", "properties": { "osm_id": "1406781248", "code": 5621, "fclass": "bus_stop", "name": "八一路省邮电干校站" }, "geometry": { "type": "Point", "coordinates": [ 114.3470497, 30.5378801 ] } },
{ "type": "Feature", "properties": { "osm_id": "1406781284", "code": 5621, "fclass": "bus_stop", "name": "八一路东一路口站" }, "geometry": { "type": "Point", "coordinates": [ 114.3375011, 30.5404651 ] } },
{ "type": "Feature", "properties": { "osm_id": "1406781308", "code": 5621, "fclass": "bus_stop", "name": "八一路东一路口站" }, "geometry": { "type": "Point", "coordinates": [ 114.3369592, 30.540971 ] } },
{ "type": "Feature", "properties": { "osm_id": "1406781376", "code": 5621, "fclass": "bus_stop", "name": "八一路省邮电干校站" }, "geometry": { "type": "Point", "coordinates": [ 114.3470899, 30.5379332 ] } },
{ "type": "Feature", "properties": { "osm_id": "1408364628", "code": 5621, "fclass": "bus_stop", "name": "省科学技术厅站" }, "geometry": { "type": "Point", "coordinates": [ 114.3414216, 30.5417032 ] } },
{ "type": "Feature", "properties": { "osm_id": "1408369126", "code": 5621, "fclass": "bus_stop", "name": "洪山侧路茶港小区站" }, "geometry": { "type": "Point", "coordinates": [ 114.3475743, 30.5419049 ] } },
{ "type": "Feature", "properties": { "osm_id": "1408369132", "code": 5621, "fclass": "bus_stop", "name": "洪山侧路茶港小区站" }, "geometry": { "type": "Point", "coordinates": [ 114.3477846, 30.5417634 ] } },
{ "type": "Feature", "properties": { "osm_id": "1419147996", "code": 5621, "fclass": "bus_stop", "name": "武汉关站" }, "geometry": { "type": "Point", "coordinates": [ 114.2917857, 30.5771394 ] } },
{ "type": "Feature", "properties": { "osm_id": "1419152461", "code": 5601, "fclass": "railway_station", "name": "江汉路站" }, "geometry": { "type": "Point", "coordinates": [ 114.2871187, 30.5820857 ] } },
{ "type": "Feature", "properties": { "osm_id": "1419796864", "code": 5621, "fclass": "bus_stop", "name": "民权路王家巷站" }, "geometry": { "type": "Point", "coordinates": [ 114.2883663, 30.5724417 ] } },
{ "type": "Feature", "properties": { "osm_id": "1445954898", "code": 5621, "fclass": "bus_stop", "name": "黄孝河路竹叶山站" }, "geometry": { "type": "Point", "coordinates": [ 114.2804247, 30.6239346 ] } },
{ "type": "Feature", "properties": { "osm_id": "1445954925", "code": 5621, "fclass": "bus_stop", "name": "石桥路塔子湖西路站" }, "geometry": { "type": "Point", "coordinates": [ 114.272274, 30.6318425 ] } },
{ "type": "Feature", "properties": { "osm_id": "1445954977", "code": 5621, "fclass": "bus_stop", "name": "石桥路石桥一路站" }, "geometry": { "type": "Point", "coordinates": [ 114.2732874, 30.6296984 ] } },
{ "type": "Feature", "properties": { "osm_id": "1445955105", "code": 5621, "fclass": "bus_stop", "name": "黄孝河路竹叶山站" }, "geometry": { "type": "Point", "coordinates": [ 114.2803376, 30.6233535 ] } },
{ "type": "Feature", "properties": { "osm_id": "1445955112", "code": 5621, "fclass": "bus_stop", "name": "石桥路石桥一路站" }, "geometry": { "type": "Point", "coordinates": [ 114.2732297, 30.6296304 ] } },
{ "type": "Feature", "properties": { "osm_id": "1455682704", "code": 5621, "fclass": "bus_stop", "name": "新华路万达站" }, "geometry": { "type": "Point", "coordinates": [ 114.2614306, 30.6118909 ] } },
{ "type": "Feature", "properties": { "osm_id": "1455682735", "code": 5621, "fclass": "bus_stop", "name": "唐家墩路万达站" }, "geometry": { "type": "Point", "coordinates": [ 114.2660444, 30.613936 ] } },
{ "type": "Feature", "properties": { "osm_id": "1455682797", "code": 5621, "fclass": "bus_stop", "name": "唐家墩路万达站" }, "geometry": { "type": "Point", "coordinates": [ 114.2659392, 30.6139705 ] } },
{ "type": "Feature", "properties": { "osm_id": "1459094310", "code": 5621, "fclass": "bus_stop", "name": "汉阳大道汉阳火车站" }, "geometry": { "type": "Point", "coordinates": [ 114.2505834, 30.5530365 ] } },
{ "type": "Feature", "properties": { "osm_id": "1459094334", "code": 5621, "fclass": "bus_stop", "name": "武汉动物园" }, "geometry": { "type": "Point", "coordinates": [ 114.2397299, 30.5489647 ] } },
{ "type": "Feature", "properties": { "osm_id": "1459094335", "code": 5621, "fclass": "bus_stop", "name": "汉阳大道汉阳医院站" }, "geometry": { "type": "Point", "coordinates": [ 114.2416888, 30.5545466 ] } },
{ "type": "Feature", "properties": { "osm_id": "1459094339", "code": 5621, "fclass": "bus_stop", "name": "钟家村" }, "geometry": { "type": "Point", "coordinates": [ 114.2588165, 30.5521292 ] } },
{ "type": "Feature", "properties": { "osm_id": "1459218113", "code": 5661, "fclass": "ferry_terminal", "name": "武汉客运港" }, "geometry": { "type": "Point", "coordinates": [ 114.2961887, 30.5804636 ] } },
{ "type": "Feature", "properties": { "osm_id": "1459555744", "code": 5603, "fclass": "tram_stop", "name": null }, "geometry": { "type": "Point", "coordinates": [ 114.2604527, 30.5544885 ] } },
{ "type": "Feature", "properties": { "osm_id": "1459609805", "code": 5622, "fclass": "bus_station", "name": null }, "geometry": { "type": "Point", "coordinates": [ 114.2568675, 30.5547204 ] } },
{ "type": "Feature", "properties": { "osm_id": "1459609824", "code": 5621, "fclass": "bus_stop", "name": "鹦鹉大道古琴台站" }, "geometry": { "type": "Point", "coordinates": [ 114.260656, 30.5603901 ] } },
{ "type": "Feature", "properties": { "osm_id": "1460756436", "code": 5601, "fclass": "railway_station", "name": "汉阳火车站" }, "geometry": { "type": "Point", "coordinates": [ 114.2502786, 30.5552578 ] } },
{ "type": "Feature", "properties": { "osm_id": "1462129245", "code": 5622, "fclass": "bus_station", "name": "王家湾‎" }, "geometry": { "type": "Point", "coordinates": [ 114.2041767, 30.5631184 ] } },
{ "type": "Feature", "properties": { "osm_id": "1462129265", "code": 5621, "fclass": "bus_stop", "name": "玫瑰园东路‎" }, "geometry": { "type": "Point", "coordinates": [ 114.2064738, 30.5683933 ] } },
{ "type": "Feature", "properties": { "osm_id": "1480803437", "code": 5621, "fclass": "bus_stop", "name": "雄楚大道尤李村站" }, "geometry": { "type": "Point", "coordinates": [ 114.3422074, 30.512464 ] } },
{ "type": "Feature", "properties": { "osm_id": "1480803438", "code": 5621, "fclass": "bus_stop", "name": "雄楚大道幸福路站" }, "geometry": { "type": "Point", "coordinates": [ 114.3469597, 30.5126767 ] } },
{ "type": "Feature", "properties": { "osm_id": "1627795795", "code": 5621, "fclass": "bus_stop", "name": "创业街烽火科技站" }, "geometry": { "type": "Point", "coordinates": [ 114.422821, 30.5018124 ] } },
{ "type": "Feature", "properties": { "osm_id": "1627795805", "code": 5621, "fclass": "bus_stop", "name": "创业街长飞光纤站" }, "geometry": { "type": "Point", "coordinates": [ 114.4186649, 30.5021764 ] } },
{ "type": "Feature", "properties": { "osm_id": "1627795811", "code": 5621, "fclass": "bus_stop", "name": "光谷大道竹林熊站" }, "geometry": { "type": "Point", "coordinates": [ 114.4178171, 30.5055838 ] } },
{ "type": "Feature", "properties": { "osm_id": "1627803478", "code": 5621, "fclass": "bus_stop", "name": "珞狮路黄家湾站" }, "geometry": { "type": "Point", "coordinates": [ 114.3449311, 30.5199927 ] } },
{ "type": "Feature", "properties": { "osm_id": "1627803481", "code": 5621, "fclass": "bus_stop", "name": "珞狮路黄家湾站" }, "geometry": { "type": "Point", "coordinates": [ 114.3451957, 30.5199974 ] } },
{ "type": "Feature", "properties": { "osm_id": "1627803515", "code": 5621, "fclass": "bus_stop", "name": "珞狮路马房山站" }, "geometry": { "type": "Point", "coordinates": [ 114.3445383, 30.5165338 ] } },
{ "type": "Feature", "properties": { "osm_id": "1627803517", "code": 5621, "fclass": "bus_stop", "name": "珞狮路马房山站" }, "geometry": { "type": "Point", "coordinates": [ 114.3448143, 30.5159279 ] } },
{ "type": "Feature", "properties": { "osm_id": "1703084203", "code": 5601, "fclass": "railway_station", "name": "三阳路站" }, "geometry": { "type": "Point", "coordinates": [ 114.2963005, 30.6019124 ] } },
{ "type": "Feature", "properties": { "osm_id": "1703084206", "code": 5601, "fclass": "railway_station", "name": "舵落口站" }, "geometry": { "type": "Point", "coordinates": [ 114.1638852, 30.6123469 ] } },
{ "type": "Feature", "properties": { "osm_id": "1703084209", "code": 5601, "fclass": "railway_station", "name": "堤角站" }, "geometry": { "type": "Point", "coordinates": [ 114.3327892, 30.668074 ] } },
{ "type": "Feature", "properties": { "osm_id": "1703084212", "code": 5601, "fclass": "railway_station", "name": "太平洋站" }, "geometry": { "type": "Point", "coordinates": [ 114.2352749, 30.5765047 ] } },
{ "type": "Feature", "properties": { "osm_id": "1703084215", "code": 5601, "fclass": "railway_station", "name": "利济北路站" }, "geometry": { "type": "Point", "coordinates": [ 114.2648757, 30.5799408 ] } },
{ "type": "Feature", "properties": { "osm_id": "1703084218", "code": 5601, "fclass": "railway_station", "name": "崇仁路站" }, "geometry": { "type": "Point", "coordinates": [ 114.2566682, 30.576477 ] } },
{ "type": "Feature", "properties": { "osm_id": "1703084225", "code": 5601, "fclass": "railway_station", "name": "古田二路站" }, "geometry": { "type": "Point", "coordinates": [ 114.1908467, 30.6002317 ] } },
{ "type": "Feature", "properties": { "osm_id": "1703084231", "code": 5601, "fclass": "railway_station", "name": "古田三路站" }, "geometry": { "type": "Point", "coordinates": [ 114.1993386, 30.5958266 ] } },
{ "type": "Feature", "properties": { "osm_id": "1703084239", "code": 5601, "fclass": "railway_station", "name": "汉西一路站" }, "geometry": { "type": "Point", "coordinates": [ 114.2137474, 30.5877871 ] } },
{ "type": "Feature", "properties": { "osm_id": "1703084243", "code": 5601, "fclass": "railway_station", "name": "循礼门站" }, "geometry": { "type": "Point", "coordinates": [ 114.2810073, 30.5873855 ] } },
{ "type": "Feature", "properties": { "osm_id": "1703084263", "code": 5601, "fclass": "railway_station", "name": "竹叶海站 (未开放)" }, "geometry": { "type": "Point", "coordinates": [ 114.1583169, 30.6168528 ] } },
{ "type": "Feature", "properties": { "osm_id": "1703084269", "code": 5601, "fclass": "railway_station", "name": "五环大道站" }, "geometry": { "type": "Point", "coordinates": [ 114.1324599, 30.6199832 ] } },
{ "type": "Feature", "properties": { "osm_id": "1703084273", "code": 5601, "fclass": "railway_station", "name": "古田四路站" }, "geometry": { "type": "Point", "coordinates": [ 114.20613, 30.5917815 ] } },
{ "type": "Feature", "properties": { "osm_id": "1703084295", "code": 5601, "fclass": "railway_station", "name": "头道街站" }, "geometry": { "type": "Point", "coordinates": [ 114.3082846, 30.6200936 ] } },
{ "type": "Feature", "properties": { "osm_id": "1703084298", "code": 5601, "fclass": "railway_station", "name": "古田一路站" }, "geometry": { "type": "Point", "coordinates": [ 114.1775644, 30.6068805 ] } },
{ "type": "Feature", "properties": { "osm_id": "1703084302", "code": 5601, "fclass": "railway_station", "name": "徐州新村站" }, "geometry": { "type": "Point", "coordinates": [ 114.3177689, 30.6336557 ] } },
{ "type": "Feature", "properties": { "osm_id": "1703084306", "code": 5601, "fclass": "railway_station", "name": "二七路站" }, "geometry": { "type": "Point", "coordinates": [ 114.3135101, 30.6275446 ] } },
{ "type": "Feature", "properties": { "osm_id": "1703084316", "code": 5601, "fclass": "railway_station", "name": "友谊路站" }, "geometry": { "type": "Point", "coordinates": [ 114.2730194, 30.5833583 ] } },
{ "type": "Feature", "properties": { "osm_id": "1703084321", "code": 5601, "fclass": "railway_station", "name": "东吴大道站" }, "geometry": { "type": "Point", "coordinates": [ 114.1227616, 30.6281904 ] } },
{ "type": "Feature", "properties": { "osm_id": "1703084329", "code": 5601, "fclass": "railway_station", "name": "额头湾站" }, "geometry": { "type": "Point", "coordinates": [ 114.1484893, 30.620786 ] } },
{ "type": "Feature", "properties": { "osm_id": "1703084331", "code": 5601, "fclass": "railway_station", "name": "大智路站" }, "geometry": { "type": "Point", "coordinates": [ 114.2896057, 30.5949954 ] } },
{ "type": "Feature", "properties": { "osm_id": "1703084337", "code": 5601, "fclass": "railway_station", "name": "硚口路站" }, "geometry": { "type": "Point", "coordinates": [ 114.2451883, 30.5740292 ] } },
{ "type": "Feature", "properties": { "osm_id": "1703084344", "code": 5601, "fclass": "railway_station", "name": "新荣站" }, "geometry": { "type": "Point", "coordinates": [ 114.3290985, 30.6580331 ] } },
{ "type": "Feature", "properties": { "osm_id": "1703084348", "code": 5601, "fclass": "railway_station", "name": "丹水池站" }, "geometry": { "type": "Point", "coordinates": [ 114.3246675, 30.6459328 ] } },
{ "type": "Feature", "properties": { "osm_id": "1703084359", "code": 5601, "fclass": "railway_station", "name": "宗关站" }, "geometry": { "type": "Point", "coordinates": [ 114.2210001, 30.5829289 ] } },
{ "type": "Feature", "properties": { "osm_id": "1708324967", "code": 5621, "fclass": "bus_stop", "name": "友谊大道华城广场" }, "geometry": { "type": "Point", "coordinates": [ 114.3542794, 30.6078721 ] } },
{ "type": "Feature", "properties": { "osm_id": "1708325099", "code": 5621, "fclass": "bus_stop", "name": "友谊大道华城广场" }, "geometry": { "type": "Point", "coordinates": [ 114.3552986, 30.6083408 ] } },
{ "type": "Feature", "properties": { "osm_id": "1722777244", "code": 5621, "fclass": "bus_stop", "name": "土吴路花山站" }, "geometry": { "type": "Point", "coordinates": [ 114.5162169, 30.5452962 ] } },
{ "type": "Feature", "properties": { "osm_id": "1722777247", "code": 5621, "fclass": "bus_stop", "name": "珞喻东路九峰站" }, "geometry": { "type": "Point", "coordinates": [ 114.493692, 30.5129713 ] } },
{ "type": "Feature", "properties": { "osm_id": "1722777251", "code": 5621, "fclass": "bus_stop", "name": "珞喻东路佳园路站" }, "geometry": { "type": "Point", "coordinates": [ 114.4263907, 30.5080328 ] } },
{ "type": "Feature", "properties": { "osm_id": "1722777256", "code": 5621, "fclass": "bus_stop", "name": "珞喻东路佳园路站" }, "geometry": { "type": "Point", "coordinates": [ 114.4264021, 30.508146 ] } },
{ "type": "Feature", "properties": { "osm_id": "1722777259", "code": 5621, "fclass": "bus_stop", "name": "珞喻东路土桥站" }, "geometry": { "type": "Point", "coordinates": [ 114.5048645, 30.5212505 ] } },
{ "type": "Feature", "properties": { "osm_id": "1722777263", "code": 5621, "fclass": "bus_stop", "name": "珞喻东路大黄村站" }, "geometry": { "type": "Point", "coordinates": [ 114.4199679, 30.5086175 ] } },
{ "type": "Feature", "properties": { "osm_id": "1722777268", "code": 5621, "fclass": "bus_stop", "name": "珞喻东路宝盖峰站" }, "geometry": { "type": "Point", "coordinates": [ 114.4884541, 30.5114309 ] } },
{ "type": "Feature", "properties": { "osm_id": "1722777274", "code": 5621, "fclass": "bus_stop", "name": "珞喻东路森林公园站" }, "geometry": { "type": "Point", "coordinates": [ 114.4317536, 30.5076671 ] } },
{ "type": "Feature", "properties": { "osm_id": "1722777275", "code": 5621, "fclass": "bus_stop", "name": "珞喻东路森林公园站" }, "geometry": { "type": "Point", "coordinates": [ 114.4322998, 30.5078325 ] } },
{ "type": "Feature", "properties": { "osm_id": "1722777278", "code": 5621, "fclass": "bus_stop", "name": "珞喻东路油篓口站" }, "geometry": { "type": "Point", "coordinates": [ 114.4390204, 30.5106807 ] } },
{ "type": "Feature", "properties": { "osm_id": "1722777285", "code": 5621, "fclass": "bus_stop", "name": "珞喻东路油篓口站" }, "geometry": { "type": "Point", "coordinates": [ 114.4389231, 30.5107569 ] } },
{ "type": "Feature", "properties": { "osm_id": "1722777289", "code": 5621, "fclass": "bus_stop", "name": "珞喻东路王家店站" }, "geometry": { "type": "Point", "coordinates": [ 114.478181, 30.5083352 ] } },
{ "type": "Feature", "properties": { "osm_id": "1722777293", "code": 5621, "fclass": "bus_stop", "name": "珞喻东路王家店站" }, "geometry": { "type": "Point", "coordinates": [ 114.4785416, 30.5085526 ] } },
{ "type": "Feature", "properties": { "osm_id": "1722777297", "code": 5621, "fclass": "bus_stop", "name": "珞喻东路石门峰公园站" }, "geometry": { "type": "Point", "coordinates": [ 114.4717794, 30.5083286 ] } },
{ "type": "Feature", "properties": { "osm_id": "1722777298", "code": 5621, "fclass": "bus_stop", "name": "珞喻东路石门峰公园站" }, "geometry": { "type": "Point", "coordinates": [ 114.4712239, 30.5085177 ] } },
{ "type": "Feature", "properties": { "osm_id": "1722777300", "code": 5621, "fclass": "bus_stop", "name": "珞喻东路长山站" }, "geometry": { "type": "Point", "coordinates": [ 114.4443374, 30.5123954 ] } },
{ "type": "Feature", "properties": { "osm_id": "1722777301", "code": 5621, "fclass": "bus_stop", "name": "珞喻东路长山站" }, "geometry": { "type": "Point", "coordinates": [ 114.4443105, 30.5125071 ] } },
{ "type": "Feature", "properties": { "osm_id": "1722777304", "code": 5621, "fclass": "bus_stop", "name": "珞喻东路高坡店站" }, "geometry": { "type": "Point", "coordinates": [ 114.4598455, 30.5118903 ] } },
{ "type": "Feature", "properties": { "osm_id": "1722777308", "code": 5621, "fclass": "bus_stop", "name": "珞喻东路高坡店站" }, "geometry": { "type": "Point", "coordinates": [ 114.460674, 30.5121016 ] } },
{ "type": "Feature", "properties": { "osm_id": "1722779393", "code": 5621, "fclass": "bus_stop", "name": "高新二路光谷一路站" }, "geometry": { "type": "Point", "coordinates": [ 114.4325435, 30.4790274 ] } },
{ "type": "Feature", "properties": { "osm_id": "1722779405", "code": 5621, "fclass": "bus_stop", "name": "高新二路光谷一路站" }, "geometry": { "type": "Point", "coordinates": [ 114.4324886, 30.4790975 ] } },
{ "type": "Feature", "properties": { "osm_id": "1722779408", "code": 5621, "fclass": "bus_stop", "name": "高新二路湖口站" }, "geometry": { "type": "Point", "coordinates": [ 114.4415801, 30.47912 ] } },
{ "type": "Feature", "properties": { "osm_id": "1722779434", "code": 5621, "fclass": "bus_stop", "name": "高新二路湖口站" }, "geometry": { "type": "Point", "coordinates": [ 114.4414963, 30.4792005 ] } },
{ "type": "Feature", "properties": { "osm_id": "1722782624", "code": 5622, "fclass": "bus_station", "name": "316国道左家岭站" }, "geometry": { "type": "Point", "coordinates": [ 114.5985195, 30.5278234 ] } },
{ "type": "Feature", "properties": { "osm_id": "1722782624", "code": 5621, "fclass": "bus_stop", "name": "316国道左家岭站" }, "geometry": { "type": "Point", "coordinates": [ 114.5985195, 30.5278234 ] } },
{ "type": "Feature", "properties": { "osm_id": "1722782626", "code": 5621, "fclass": "bus_stop", "name": "316国道左岭镇站" }, "geometry": { "type": "Point", "coordinates": [ 114.6038585, 30.5305973 ] } },
{ "type": "Feature", "properties": { "osm_id": "1722782639", "code": 5621, "fclass": "bus_stop", "name": "316国道新店站" }, "geometry": { "type": "Point", "coordinates": [ 114.5796947, 30.5154407 ] } },
{ "type": "Feature", "properties": { "osm_id": "1722782641", "code": 5621, "fclass": "bus_stop", "name": "316国道花山小区站" }, "geometry": { "type": "Point", "coordinates": [ 114.5111591, 30.5217115 ] } },
{ "type": "Feature", "properties": { "osm_id": "1722782642", "code": 5621, "fclass": "bus_stop", "name": "316国道苏家墩站" }, "geometry": { "type": "Point", "coordinates": [ 114.5247738, 30.519162 ] } },
{ "type": "Feature", "properties": { "osm_id": "1794018538", "code": 5621, "fclass": "bus_stop", "name": "鲁磨路地质大学站" }, "geometry": { "type": "Point", "coordinates": [ 114.3957694, 30.5222455 ] } },
{ "type": "Feature", "properties": { "osm_id": "1807282579", "code": 5621, "fclass": "bus_stop", "name": "虎泉街地铁光谷广场站" }, "geometry": { "type": "Point", "coordinates": [ 114.3910997, 30.5080978 ] } },
{ "type": "Feature", "properties": { "osm_id": "1807282585", "code": 5621, "fclass": "bus_stop", "name": "虎泉街地铁光谷广场站" }, "geometry": { "type": "Point", "coordinates": [ 114.391016, 30.5078982 ] } },
{ "type": "Feature", "properties": { "osm_id": "1814595870", "code": 5621, "fclass": "bus_stop", "name": "鲁磨路光谷广场站" }, "geometry": { "type": "Point", "coordinates": [ 114.3937737, 30.5125516 ] } },
{ "type": "Feature", "properties": { "osm_id": "1814611634", "code": 5621, "fclass": "bus_stop", "name": "大学园路郑桥村站" }, "geometry": { "type": "Point", "coordinates": [ 114.3955275, 30.4571629 ] } },
{ "type": "Feature", "properties": { "osm_id": "1814611638", "code": 5621, "fclass": "bus_stop", "name": "藏龙大道杨桥湖大道口站" }, "geometry": { "type": "Point", "coordinates": [ 114.4199676, 30.4177206 ] } },
{ "type": "Feature", "properties": { "osm_id": "1814611641", "code": 5621, "fclass": "bus_stop", "name": "大学园路化徐村站" }, "geometry": { "type": "Point", "coordinates": [ 114.4008043, 30.4635621 ] } },
{ "type": "Feature", "properties": { "osm_id": "1814611642", "code": 5621, "fclass": "bus_stop", "name": "大学园路郑桥村站" }, "geometry": { "type": "Point", "coordinates": [ 114.3958335, 30.4573424 ] } },
{ "type": "Feature", "properties": { "osm_id": "1814611643", "code": 5621, "fclass": "bus_stop", "name": "关山大道华夏学院站" }, "geometry": { "type": "Point", "coordinates": [ 114.4030056, 30.4690414 ] } },
{ "type": "Feature", "properties": { "osm_id": "1814611649", "code": 5621, "fclass": "bus_stop", "name": "大学园路罗友村站" }, "geometry": { "type": "Point", "coordinates": [ 114.3922664, 30.4529969 ] } },
{ "type": "Feature", "properties": { "osm_id": "1814611660", "code": 5621, "fclass": "bus_stop", "name": "藏龙大道青龙嘴站" }, "geometry": { "type": "Point", "coordinates": [ 114.3949472, 30.4450902 ] } },
{ "type": "Feature", "properties": { "osm_id": "1814611672", "code": 5621, "fclass": "bus_stop", "name": "大学园路化徐村站" }, "geometry": { "type": "Point", "coordinates": [ 114.4009053, 30.4638592 ] } },
{ "type": "Feature", "properties": { "osm_id": "1814611675", "code": 5621, "fclass": "bus_stop", "name": "藏龙大道前舒湾站" }, "geometry": { "type": "Point", "coordinates": [ 114.4035436, 30.4302572 ] } },
{ "type": "Feature", "properties": { "osm_id": "1814611685", "code": 5621, "fclass": "bus_stop", "name": "华师园路大学园路口站" }, "geometry": { "type": "Point", "coordinates": [ 114.3939372, 30.4564104 ] } },
{ "type": "Feature", "properties": { "osm_id": "1814611689", "code": 5621, "fclass": "bus_stop", "name": "关山大道华夏学院站" }, "geometry": { "type": "Point", "coordinates": [ 114.4030782, 30.4686604 ] } },
{ "type": "Feature", "properties": { "osm_id": "1814611697", "code": 5621, "fclass": "bus_stop", "name": "藏龙大道宜家龙臣站" }, "geometry": { "type": "Point", "coordinates": [ 114.4157653, 30.4210923 ] } },
{ "type": "Feature", "properties": { "osm_id": "1814611704", "code": 5621, "fclass": "bus_stop", "name": "大学园路罗友村站" }, "geometry": { "type": "Point", "coordinates": [ 114.3921939, 30.4527304 ] } },
{ "type": "Feature", "properties": { "osm_id": "1814651044", "code": 5621, "fclass": "bus_stop", "name": "光谷一路新农村站" }, "geometry": { "type": "Point", "coordinates": [ 114.4336798, 30.4898172 ] } },
{ "type": "Feature", "properties": { "osm_id": "1814651076", "code": 5621, "fclass": "bus_stop", "name": "光谷一路曾家垸" }, "geometry": { "type": "Point", "coordinates": [ 114.4315927, 30.4813802 ] } },
{ "type": "Feature", "properties": { "osm_id": "1814651079", "code": 5621, "fclass": "bus_stop", "name": "高新大道五角塘站" }, "geometry": { "type": "Point", "coordinates": [ 114.4150516, 30.4987543 ] } },
{ "type": "Feature", "properties": { "osm_id": "1814651083", "code": 5621, "fclass": "bus_stop", "name": "高新大道茶棚村站" }, "geometry": { "type": "Point", "coordinates": [ 114.4309112, 30.4924353 ] } },
{ "type": "Feature", "properties": { "osm_id": "1814651093", "code": 5621, "fclass": "bus_stop", "name": "光谷一路曾家垸" }, "geometry": { "type": "Point", "coordinates": [ 114.431641, 30.4804371 ] } },
{ "type": "Feature", "properties": { "osm_id": "1814651097", "code": 5621, "fclass": "bus_stop", "name": "光谷一路湖口湾站" }, "geometry": { "type": "Point", "coordinates": [ 114.4326346, 30.4857794 ] } },
{ "type": "Feature", "properties": { "osm_id": "1814651104", "code": 5621, "fclass": "bus_stop", "name": "高新大道茶棚站" }, "geometry": { "type": "Point", "coordinates": [ 114.4221939, 30.4954563 ] } },
{ "type": "Feature", "properties": { "osm_id": "1814651109", "code": 5621, "fclass": "bus_stop", "name": "高新大道茶棚站" }, "geometry": { "type": "Point", "coordinates": [ 114.4221442, 30.4953551 ] } },
{ "type": "Feature", "properties": { "osm_id": "1814651112", "code": 5621, "fclass": "bus_stop", "name": "高新二路姚家村站" }, "geometry": { "type": "Point", "coordinates": [ 114.4377406, 30.4791508 ] } },
{ "type": "Feature", "properties": { "osm_id": "1814651138", "code": 5621, "fclass": "bus_stop", "name": "高新二路姚家村站" }, "geometry": { "type": "Point", "coordinates": [ 114.4377378, 30.4792148 ] } },
{ "type": "Feature", "properties": { "osm_id": "1814651143", "code": 5621, "fclass": "bus_stop", "name": "光谷一路湖口湾站" }, "geometry": { "type": "Point", "coordinates": [ 114.4324823, 30.4861106 ] } },
{ "type": "Feature", "properties": { "osm_id": "1814651155", "code": 5621, "fclass": "bus_stop", "name": "光谷一路新农村站" }, "geometry": { "type": "Point", "coordinates": [ 114.4338369, 30.4906715 ] } },
{ "type": "Feature", "properties": { "osm_id": "1814651173", "code": 5621, "fclass": "bus_stop", "name": "高新大道关山站" }, "geometry": { "type": "Point", "coordinates": [ 114.4073075, 30.4995361 ] } },
{ "type": "Feature", "properties": { "osm_id": "1814708515", "code": 5621, "fclass": "bus_stop", "name": "雄楚大道枫林上城站" }, "geometry": { "type": "Point", "coordinates": [ 114.397871, 30.500154 ] } },
{ "type": "Feature", "properties": { "osm_id": "1814708573", "code": 5621, "fclass": "bus_stop", "name": "雄楚大道枫林上城站" }, "geometry": { "type": "Point", "coordinates": [ 114.3978991, 30.4999894 ] } },
{ "type": "Feature", "properties": { "osm_id": "1814708583", "code": 5621, "fclass": "bus_stop", "name": "南湖大道大彭村站" }, "geometry": { "type": "Point", "coordinates": [ 114.4074155, 30.4812708 ] } },
{ "type": "Feature", "properties": { "osm_id": "1814708636", "code": 5621, "fclass": "bus_stop", "name": "雄楚大道关山中学站" }, "geometry": { "type": "Point", "coordinates": [ 114.4031937, 30.4997056 ] } },
{ "type": "Feature", "properties": { "osm_id": "1814708639", "code": 5621, "fclass": "bus_stop", "name": "南湖大道大彭村站" }, "geometry": { "type": "Point", "coordinates": [ 114.4080881, 30.4812799 ] } },
{ "type": "Feature", "properties": { "osm_id": "1814708668", "code": 5621, "fclass": "bus_stop", "name": "雄楚大道关山中学站" }, "geometry": { "type": "Point", "coordinates": [ 114.4036782, 30.4998621 ] } },
{ "type": "Feature", "properties": { "osm_id": "1814708673", "code": 5621, "fclass": "bus_stop", "name": "雄楚大道下钱村站" }, "geometry": { "type": "Point", "coordinates": [ 114.3937576, 30.500206 ] } },
{ "type": "Feature", "properties": { "osm_id": "1814708676", "code": 5621, "fclass": "bus_stop", "name": "雄楚大道下钱村站" }, "geometry": { "type": "Point", "coordinates": [ 114.3939972, 30.5003582 ] } },
{ "type": "Feature", "properties": { "osm_id": "1814714959", "code": 5621, "fclass": "bus_stop", "name": "光谷大道金融港站" }, "geometry": { "type": "Point", "coordinates": [ 114.4152891, 30.4570401 ] } },
{ "type": "Feature", "properties": { "osm_id": "1814714969", "code": 5621, "fclass": "bus_stop", "name": "光谷大道三李陈站" }, "geometry": { "type": "Point", "coordinates": [ 114.4147775, 30.4749827 ] } },
{ "type": "Feature", "properties": { "osm_id": "1814714980", "code": 5621, "fclass": "bus_stop", "name": "光谷大道三李陈站" }, "geometry": { "type": "Point", "coordinates": [ 114.4146762, 30.4748162 ] } },
{ "type": "Feature", "properties": { "osm_id": "1814714992", "code": 5621, "fclass": "bus_stop", "name": "光谷大道当代国际花园站" }, "geometry": { "type": "Point", "coordinates": [ 114.4148596, 30.4641522 ] } },
{ "type": "Feature", "properties": { "osm_id": "1814715001", "code": 5621, "fclass": "bus_stop", "name": "光谷大道当代国际花园站" }, "geometry": { "type": "Point", "coordinates": [ 114.4150002, 30.4634354 ] } },
{ "type": "Feature", "properties": { "osm_id": "1814715015", "code": 5621, "fclass": "bus_stop", "name": "光谷大道金融港站" }, "geometry": { "type": "Point", "coordinates": [ 114.4151322, 30.4581338 ] } },
{ "type": "Feature", "properties": { "osm_id": "1814723770", "code": 5621, "fclass": "bus_stop", "name": "高新四路万科魅力之城站" }, "geometry": { "type": "Point", "coordinates": [ 114.4316927, 30.4539946 ] } },
{ "type": "Feature", "properties": { "osm_id": "1814723773", "code": 5621, "fclass": "bus_stop", "name": "高新四路竹林园站" }, "geometry": { "type": "Point", "coordinates": [ 114.422519, 30.4524783 ] } },
{ "type": "Feature", "properties": { "osm_id": "1814723776", "code": 5621, "fclass": "bus_stop", "name": "高新四路竹林园站" }, "geometry": { "type": "Point", "coordinates": [ 114.4236803, 30.4527585 ] } },
{ "type": "Feature", "properties": { "osm_id": "1814723779", "code": 5621, "fclass": "bus_stop", "name": "高新四路港边田站" }, "geometry": { "type": "Point", "coordinates": [ 114.4419729, 30.4557491 ] } },
{ "type": "Feature", "properties": { "osm_id": "1814723804", "code": 5621, "fclass": "bus_stop", "name": "高新四路梅万村站" }, "geometry": { "type": "Point", "coordinates": [ 114.4170765, 30.451647 ] } },
{ "type": "Feature", "properties": { "osm_id": "1814723825", "code": 5621, "fclass": "bus_stop", "name": "高新四路邬家山站" }, "geometry": { "type": "Point", "coordinates": [ 114.4372683, 30.4548636 ] } },
{ "type": "Feature", "properties": { "osm_id": "1814723827", "code": 5621, "fclass": "bus_stop", "name": "高新四路港边田站" }, "geometry": { "type": "Point", "coordinates": [ 114.4432067, 30.4561143 ] } },
{ "type": "Feature", "properties": { "osm_id": "1814723847", "code": 5621, "fclass": "bus_stop", "name": "高新四路梅万村" }, "geometry": { "type": "Point", "coordinates": [ 114.4184412, 30.4519503 ] } },
{ "type": "Feature", "properties": { "osm_id": "1814723853", "code": 5621, "fclass": "bus_stop", "name": "高新四路万科魅力之城站" }, "geometry": { "type": "Point", "coordinates": [ 114.4312216, 30.453811 ] } },
{ "type": "Feature", "properties": { "osm_id": "1814747709", "code": 5621, "fclass": "bus_stop", "name": "光谷二路商贸职业学院站" }, "geometry": { "type": "Point", "coordinates": [ 114.4541475, 30.4408243 ] } },
{ "type": "Feature", "properties": { "osm_id": "1814747713", "code": 5621, "fclass": "bus_stop", "name": "光谷二路大邱新村站" }, "geometry": { "type": "Point", "coordinates": [ 114.4517002, 30.4526691 ] } },
{ "type": "Feature", "properties": { "osm_id": "1814747719", "code": 5621, "fclass": "bus_stop", "name": "流芳老街大邱客运站" }, "geometry": { "type": "Point", "coordinates": [ 114.4481404, 30.4446385 ] } },
{ "type": "Feature", "properties": { "osm_id": "1814747722", "code": 5621, "fclass": "bus_stop", "name": "光谷二路商贸职业学院站" }, "geometry": { "type": "Point", "coordinates": [ 114.4540448, 30.4408287 ] } },
{ "type": "Feature", "properties": { "osm_id": "1814747741", "code": 5621, "fclass": "bus_stop", "name": "光谷二路大邱新村站" }, "geometry": { "type": "Point", "coordinates": [ 114.45158, 30.4526855 ] } },
{ "type": "Feature", "properties": { "osm_id": "1818426809", "code": 5621, "fclass": "bus_stop", "name": "美院南门站" }, "geometry": { "type": "Point", "coordinates": [ 114.4106208, 30.3895314 ] } },
{ "type": "Feature", "properties": { "osm_id": "1818426868", "code": 5621, "fclass": "bus_stop", "name": "栗庙新村站" }, "geometry": { "type": "Point", "coordinates": [ 114.4155608, 30.3935808 ] } },
{ "type": "Feature", "properties": { "osm_id": "1818443874", "code": 5621, "fclass": "bus_stop", "name": "光谷大道陆景苑小区" }, "geometry": { "type": "Point", "coordinates": [ 114.4164788, 30.4945294 ] } },
{ "type": "Feature", "properties": { "osm_id": "1818443879", "code": 5621, "fclass": "bus_stop", "name": "光谷大道凌家山北路站" }, "geometry": { "type": "Point", "coordinates": [ 114.4159451, 30.4861375 ] } },
{ "type": "Feature", "properties": { "osm_id": "1818443882", "code": 5621, "fclass": "bus_stop", "name": "光谷大道堡湖嘴站" }, "geometry": { "type": "Point", "coordinates": [ 114.4239413, 30.4336612 ] } },
{ "type": "Feature", "properties": { "osm_id": "1818443887", "code": 5621, "fclass": "bus_stop", "name": "光谷大道凌家山北路站" }, "geometry": { "type": "Point", "coordinates": [ 114.4158646, 30.4864027 ] } },
{ "type": "Feature", "properties": { "osm_id": "1818443888", "code": 5621, "fclass": "bus_stop", "name": "光谷大道关南村站" }, "geometry": { "type": "Point", "coordinates": [ 114.4152449, 30.4801211 ] } },
{ "type": "Feature", "properties": { "osm_id": "1818443895", "code": 5621, "fclass": "bus_stop", "name": "光谷大道大郭湾站" }, "geometry": { "type": "Point", "coordinates": [ 114.4292967, 30.4299722 ] } },
{ "type": "Feature", "properties": { "osm_id": "1818443900", "code": 5621, "fclass": "bus_stop", "name": "光谷大道大郭湾站" }, "geometry": { "type": "Point", "coordinates": [ 114.4301845, 30.4295944 ] } },
{ "type": "Feature", "properties": { "osm_id": "1818443907", "code": 5621, "fclass": "bus_stop", "name": "光谷大道陆景苑小区" }, "geometry": { "type": "Point", "coordinates": [ 114.4165601, 30.494417 ] } },
{ "type": "Feature", "properties": { "osm_id": "1818443909", "code": 5621, "fclass": "bus_stop", "name": "光谷大道关南村站" }, "geometry": { "type": "Point", "coordinates": [ 114.4151303, 30.4800371 ] } },
{ "type": "Feature", "properties": { "osm_id": "1818443910", "code": 5621, "fclass": "bus_stop", "name": "杨桥湖大道藏龙大道口站" }, "geometry": { "type": "Point", "coordinates": [ 114.4203993, 30.4178243 ] } },
{ "type": "Feature", "properties": { "osm_id": "1818443912", "code": 5621, "fclass": "bus_stop", "name": "杨桥湖大道藏龙大道口站" }, "geometry": { "type": "Point", "coordinates": [ 114.4204885, 30.4177519 ] } },
{ "type": "Feature", "properties": { "osm_id": "1818504796", "code": 5621, "fclass": "bus_stop", "name": "藏龙大道杨桥湾站" }, "geometry": { "type": "Point", "coordinates": [ 114.4309263, 30.4077049 ] } },
{ "type": "Feature", "properties": { "osm_id": "1818517454", "code": 5621, "fclass": "bus_stop", "name": "民族大道山北杨站" }, "geometry": { "type": "Point", "coordinates": [ 114.387439, 30.4727093 ] } },
{ "type": "Feature", "properties": { "osm_id": "1818517473", "code": 5621, "fclass": "bus_stop", "name": "民族大道顾庄村站" }, "geometry": { "type": "Point", "coordinates": [ 114.3833996, 30.4593592 ] } },
{ "type": "Feature", "properties": { "osm_id": "1818517478", "code": 5621, "fclass": "bus_stop", "name": "华师园路华师一附中站" }, "geometry": { "type": "Point", "coordinates": [ 114.3850372, 30.4582631 ] } },
{ "type": "Feature", "properties": { "osm_id": "1818517479", "code": 5621, "fclass": "bus_stop", "name": "民族大道冯徐村站" }, "geometry": { "type": "Point", "coordinates": [ 114.3867262, 30.4697279 ] } },
{ "type": "Feature", "properties": { "osm_id": "1818517507", "code": 5621, "fclass": "bus_stop", "name": "民族大道冯徐村站" }, "geometry": { "type": "Point", "coordinates": [ 114.3865566, 30.4697449 ] } },
{ "type": "Feature", "properties": { "osm_id": "1818517522", "code": 5621, "fclass": "bus_stop", "name": "杨桥湖大道藏龙大道口站" }, "geometry": { "type": "Point", "coordinates": [ 114.4192455, 30.4171552 ] } },
{ "type": "Feature", "properties": { "osm_id": "1818517533", "code": 5621, "fclass": "bus_stop", "name": "华农楚天学院站" }, "geometry": { "type": "Point", "coordinates": [ 114.4039125, 30.4027457 ] } },
{ "type": "Feature", "properties": { "osm_id": "1818517595", "code": 5621, "fclass": "bus_stop", "name": "民族大道顾庄村站" }, "geometry": { "type": "Point", "coordinates": [ 114.3835175, 30.4593327 ] } },
{ "type": "Feature", "properties": { "osm_id": "1818517598", "code": 5621, "fclass": "bus_stop", "name": "民族大道山北杨站" }, "geometry": { "type": "Point", "coordinates": [ 114.3875812, 30.4726728 ] } },
{ "type": "Feature", "properties": { "osm_id": "1818518606", "code": 5621, "fclass": "bus_stop", "name": "民族大道东山头站" }, "geometry": { "type": "Point", "coordinates": [ 114.3892679, 30.4791732 ] } },
{ "type": "Feature", "properties": { "osm_id": "1818518608", "code": 5621, "fclass": "bus_stop", "name": "民族大道东山头站" }, "geometry": { "type": "Point", "coordinates": [ 114.3892996, 30.4788341 ] } },
{ "type": "Feature", "properties": { "osm_id": "1818522480", "code": 5621, "fclass": "bus_stop", "name": "民族大道时间广场站" }, "geometry": { "type": "Point", "coordinates": [ 114.3922689, 30.4981712 ] } },
{ "type": "Feature", "properties": { "osm_id": "1818522481", "code": 5621, "fclass": "bus_stop", "name": "民族大道纺织大学站" }, "geometry": { "type": "Point", "coordinates": [ 114.3901133, 30.4857195 ] } },
{ "type": "Feature", "properties": { "osm_id": "1818522483", "code": 5621, "fclass": "bus_stop", "name": "民族大道时间广场站" }, "geometry": { "type": "Point", "coordinates": [ 114.3920469, 30.498191 ] } },
{ "type": "Feature", "properties": { "osm_id": "1818522492", "code": 5621, "fclass": "bus_stop", "name": "民族大道中南民族大学站" }, "geometry": { "type": "Point", "coordinates": [ 114.3902704, 30.489926 ] } },
{ "type": "Feature", "properties": { "osm_id": "1818522493", "code": 5621, "fclass": "bus_stop", "name": "民族大道中南民族大学站" }, "geometry": { "type": "Point", "coordinates": [ 114.3905005, 30.4899222 ] } },
{ "type": "Feature", "properties": { "osm_id": "1818522501", "code": 5621, "fclass": "bus_stop", "name": "民族大道纺织大学站" }, "geometry": { "type": "Point", "coordinates": [ 114.3903167, 30.4857045 ] } },
{ "type": "Feature", "properties": { "osm_id": "1818526100", "code": 5621, "fclass": "bus_stop", "name": "南湖社区站" }, "geometry": { "type": "Point", "coordinates": [ 114.3719692, 30.4659897 ] } },
{ "type": "Feature", "properties": { "osm_id": "1818548891", "code": 5621, "fclass": "bus_stop", "name": "武大园路武大园三路站" }, "geometry": { "type": "Point", "coordinates": [ 114.4038399, 30.4532552 ] } },
{ "type": "Feature", "properties": { "osm_id": "1818548892", "code": 5621, "fclass": "bus_stop", "name": "滨湖大道华灿光电站" }, "geometry": { "type": "Point", "coordinates": [ 114.4068369, 30.4502875 ] } },
{ "type": "Feature", "properties": { "osm_id": "1818548893", "code": 5621, "fclass": "bus_stop", "name": "武大园路武大园一路站" }, "geometry": { "type": "Point", "coordinates": [ 114.399303, 30.4572296 ] } },
{ "type": "Feature", "properties": { "osm_id": "1818548896", "code": 5621, "fclass": "bus_stop", "name": "滨湖大道光谷大道站" }, "geometry": { "type": "Point", "coordinates": [ 114.4134516, 30.451196 ] } },
{ "type": "Feature", "properties": { "osm_id": "1818566610", "code": 5621, "fclass": "bus_stop", "name": "光谷二路汪田村站" }, "geometry": { "type": "Point", "coordinates": [ 114.4542527, 30.4436127 ] } },
{ "type": "Feature", "properties": { "osm_id": "1818566618", "code": 5621, "fclass": "bus_stop", "name": "光谷二路牌楼舒村站" }, "geometry": { "type": "Point", "coordinates": [ 114.453749, 30.4313955 ] } },
{ "type": "Feature", "properties": { "osm_id": "1818566619", "code": 5621, "fclass": "bus_stop", "name": "东园西路佛祖岭站" }, "geometry": { "type": "Point", "coordinates": [ 114.4447722, 30.426668 ] } },
{ "type": "Feature", "properties": { "osm_id": "1818566621", "code": 5621, "fclass": "bus_stop", "name": "高新六路佛祖岭站" }, "geometry": { "type": "Point", "coordinates": [ 114.4388418, 30.4413775 ] } },
{ "type": "Feature", "properties": { "osm_id": "1818566626", "code": 5621, "fclass": "bus_stop", "name": "光谷一路魅力之城东门站" }, "geometry": { "type": "Point", "coordinates": [ 114.4333847, 30.453253 ] } },
{ "type": "Feature", "properties": { "osm_id": "1818566631", "code": 5621, "fclass": "bus_stop", "name": "光谷二路牌楼舒村站" }, "geometry": { "type": "Point", "coordinates": [ 114.4536734, 30.4320224 ] } },
{ "type": "Feature", "properties": { "osm_id": "1818566637", "code": 5621, "fclass": "bus_stop", "name": "光谷一路佛祖岭C区站" }, "geometry": { "type": "Point", "coordinates": [ 114.4350816, 30.4487778 ] } },
{ "type": "Feature", "properties": { "osm_id": "1818566641", "code": 5621, "fclass": "bus_stop", "name": "光谷一路佛祖岭C区站" }, "geometry": { "type": "Point", "coordinates": [ 114.4353381, 30.448712 ] } },
{ "type": "Feature", "properties": { "osm_id": "1818566646", "code": 5621, "fclass": "bus_stop", "name": "光谷一路佛祖岭B区站" }, "geometry": { "type": "Point", "coordinates": [ 114.4376326, 30.4426248 ] } },
{ "type": "Feature", "properties": { "osm_id": "1818566656", "code": 5621, "fclass": "bus_stop", "name": "高新六路流芳大街站" }, "geometry": { "type": "Point", "coordinates": [ 114.4443721, 30.441827 ] } },
{ "type": "Feature", "properties": { "osm_id": "1818566657", "code": 5621, "fclass": "bus_stop", "name": "高新六路流芳大街站" }, "geometry": { "type": "Point", "coordinates": [ 114.4466685, 30.4418208 ] } },
{ "type": "Feature", "properties": { "osm_id": "1818566665", "code": 5621, "fclass": "bus_stop", "name": "光谷一路魅力之城东门站" }, "geometry": { "type": "Point", "coordinates": [ 114.433759, 30.4528657 ] } },
{ "type": "Feature", "properties": { "osm_id": "1818566670", "code": 5621, "fclass": "bus_stop", "name": "光谷一路佛祖岭B区站" }, "geometry": { "type": "Point", "coordinates": [ 114.4373629, 30.4428089 ] } },
{ "type": "Feature", "properties": { "osm_id": "1818566672", "code": 5621, "fclass": "bus_stop", "name": "光谷二路富五路站" }, "geometry": { "type": "Point", "coordinates": [ 114.4526431, 30.4254827 ] } },
{ "type": "Feature", "properties": { "osm_id": "1818566676", "code": 5621, "fclass": "bus_stop", "name": "东园西路佛祖岭站" }, "geometry": { "type": "Point", "coordinates": [ 114.4445007, 30.4267067 ] } },
{ "type": "Feature", "properties": { "osm_id": "1818566678", "code": 5621, "fclass": "bus_stop", "name": "光谷二路汪田村站" }, "geometry": { "type": "Point", "coordinates": [ 114.4541514, 30.4436128 ] } },
{ "type": "Feature", "properties": { "osm_id": "1818566687", "code": 5621, "fclass": "bus_stop", "name": "高新六路佛祖岭站" }, "geometry": { "type": "Point", "coordinates": [ 114.4394052, 30.4415257 ] } },
{ "type": "Feature", "properties": { "osm_id": "1862925058", "code": 5641, "fclass": "taxi", "name": null }, "geometry": { "type": "Point", "coordinates": [ 114.4194566, 30.6115805 ] } },
{ "type": "Feature", "properties": { "osm_id": "1862925177", "code": 5621, "fclass": "bus_stop", "name": "武汉火车站" }, "geometry": { "type": "Point", "coordinates": [ 114.421323, 30.6109814 ] } },
{ "type": "Feature", "properties": { "osm_id": "1863926720", "code": 5601, "fclass": "railway_station", "name": "武汉火车站" }, "geometry": { "type": "Point", "coordinates": [ 114.4186571, 30.6099184 ] } },
{ "type": "Feature", "properties": { "osm_id": "1877156753", "code": 5621, "fclass": "bus_stop", "name": "民族路三民路口站" }, "geometry": { "type": "Point", "coordinates": [ 114.2799822, 30.5738719 ] } },
{ "type": "Feature", "properties": { "osm_id": "1877156816", "code": 5621, "fclass": "bus_stop", "name": "民族路集家嘴站" }, "geometry": { "type": "Point", "coordinates": [ 114.2792835, 30.5697045 ] } },
{ "type": "Feature", "properties": { "osm_id": "1877168011", "code": 5661, "fclass": "ferry_terminal", "name": "龙王庙码头" }, "geometry": { "type": "Point", "coordinates": [ 114.2871783, 30.5684728 ] } },
{ "type": "Feature", "properties": { "osm_id": "1877168014", "code": 5661, "fclass": "ferry_terminal", "name": "集家嘴码头" }, "geometry": { "type": "Point", "coordinates": [ 114.2801185, 30.567267 ] } },
{ "type": "Feature", "properties": { "osm_id": "1880385681", "code": 5601, "fclass": "railway_station", "name": "王家墩东站" }, "geometry": { "type": "Point", "coordinates": [ 114.2571571, 30.5973875 ] } },
{ "type": "Feature", "properties": { "osm_id": "1880385744", "code": 5601, "fclass": "railway_station", "name": "汉口火车站" }, "geometry": { "type": "Point", "coordinates": [ 114.248617, 30.6195121 ] } },
{ "type": "Feature", "properties": { "osm_id": "1880385820", "code": 5601, "fclass": "railway_station", "name": "青年路站" }, "geometry": { "type": "Point", "coordinates": [ 114.2595649, 30.587437 ] } },
{ "type": "Feature", "properties": { "osm_id": "1880447237", "code": 5621, "fclass": "bus_stop", "name": "中山大道江汉路站" }, "geometry": { "type": "Point", "coordinates": [ 114.2853739, 30.5819153 ] } },
{ "type": "Feature", "properties": { "osm_id": "1880477818", "code": 5621, "fclass": "bus_stop", "name": "中山大道水塔站" }, "geometry": { "type": "Point", "coordinates": [ 114.2864718, 30.5834698 ] } },
{ "type": "Feature", "properties": { "osm_id": "1880477828", "code": 5621, "fclass": "bus_stop", "name": "保华街南京路站" }, "geometry": { "type": "Point", "coordinates": [ 114.2872488, 30.5858315 ] } },
{ "type": "Feature", "properties": { "osm_id": "1880477834", "code": 5621, "fclass": "bus_stop", "name": "中山大道南京路站" }, "geometry": { "type": "Point", "coordinates": [ 114.286589, 30.5835155 ] } },
{ "type": "Feature", "properties": { "osm_id": "1880504385", "code": 5621, "fclass": "bus_stop", "name": "中山大道大智路站" }, "geometry": { "type": "Point", "coordinates": [ 114.2899613, 30.5889861 ] } },
{ "type": "Feature", "properties": { "osm_id": "1880504389", "code": 5621, "fclass": "bus_stop", "name": "中山大道合作路口站" }, "geometry": { "type": "Point", "coordinates": [ 114.2907365, 30.5899281 ] } },
{ "type": "Feature", "properties": { "osm_id": "1880543343", "code": 5661, "fclass": "ferry_terminal", "name": "武汉关码头" }, "geometry": { "type": "Point", "coordinates": [ 114.29349, 30.5768654 ] } },
{ "type": "Feature", "properties": { "osm_id": "1881981630", "code": 5621, "fclass": "bus_stop", "name": "沿江大道三阳路站" }, "geometry": { "type": "Point", "coordinates": [ 114.3014895, 30.5974387 ] } },
{ "type": "Feature", "properties": { "osm_id": "1882095073", "code": 5621, "fclass": "bus_stop", "name": "胜利街三阳路站" }, "geometry": { "type": "Point", "coordinates": [ 114.3005701, 30.5999432 ] } },
{ "type": "Feature", "properties": { "osm_id": "1882149820", "code": 5621, "fclass": "bus_stop", "name": "芦沟桥路站" }, "geometry": { "type": "Point", "coordinates": [ 114.3065105, 30.6089909 ] } },
{ "type": "Feature", "properties": { "osm_id": "1885061345", "code": 5621, "fclass": "bus_stop", "name": "解放大道同济医院站" }, "geometry": { "type": "Point", "coordinates": [ 114.2540439, 30.5802718 ] } },
{ "type": "Feature", "properties": { "osm_id": "1886641116", "code": 5621, "fclass": "bus_stop", "name": "解放大道太平洋站" }, "geometry": { "type": "Point", "coordinates": [ 114.2274688, 30.5793087 ] } },
{ "type": "Feature", "properties": { "osm_id": "1886641183", "code": 5621, "fclass": "bus_stop", "name": "解放大道仁寿路站" }, "geometry": { "type": "Point", "coordinates": [ 114.2375673, 30.5780805 ] } },
{ "type": "Feature", "properties": { "osm_id": "1886641195", "code": 5621, "fclass": "bus_stop", "name": "解放大道太平洋站" }, "geometry": { "type": "Point", "coordinates": [ 114.2279597, 30.5788933 ] } },
{ "type": "Feature", "properties": { "osm_id": "1886641210", "code": 5621, "fclass": "bus_stop", "name": "解放大道宝丰路站" }, "geometry": { "type": "Point", "coordinates": [ 114.2450748, 30.5788885 ] } },
{ "type": "Feature", "properties": { "osm_id": "1886641231", "code": 5621, "fclass": "bus_stop", "name": "解放大道仁寿路站" }, "geometry": { "type": "Point", "coordinates": [ 114.2398714, 30.577817 ] } },
{ "type": "Feature", "properties": { "osm_id": "1886641311", "code": 5621, "fclass": "bus_stop", "name": "解放大道宝丰路站" }, "geometry": { "type": "Point", "coordinates": [ 114.2438223, 30.5783622 ] } },
{ "type": "Feature", "properties": { "osm_id": "1886641334", "code": 5621, "fclass": "bus_stop", "name": "解放大道水厂站" }, "geometry": { "type": "Point", "coordinates": [ 114.2228045, 30.5817982 ] } },
{ "type": "Feature", "properties": { "osm_id": "1886649794", "code": 5621, "fclass": "bus_stop", "name": "建设大道双墩站" }, "geometry": { "type": "Point", "coordinates": [ 114.228024, 30.5893442 ] } },
{ "type": "Feature", "properties": { "osm_id": "1886649808", "code": 5621, "fclass": "bus_stop", "name": "建设大道双墩站" }, "geometry": { "type": "Point", "coordinates": [ 114.2280991, 30.5894319 ] } },
{ "type": "Feature", "properties": { "osm_id": "1886777811", "code": 5621, "fclass": "bus_stop", "name": "建设大道新合村站" }, "geometry": { "type": "Point", "coordinates": [ 114.221859, 30.5849435 ] } },
{ "type": "Feature", "properties": { "osm_id": "1886778020", "code": 5621, "fclass": "bus_stop", "name": "建设大道新合村站" }, "geometry": { "type": "Point", "coordinates": [ 114.2213746, 30.5851929 ] } },
{ "type": "Feature", "properties": { "osm_id": "1886917420", "code": 5601, "fclass": "railway_station", "name": "汉西" }, "geometry": { "type": "Point", "coordinates": [ 114.2221106, 30.5951075 ] } },
{ "type": "Feature", "properties": { "osm_id": "1886963175", "code": 5621, "fclass": "bus_stop", "name": "解放大道水厂站" }, "geometry": { "type": "Point", "coordinates": [ 114.2225683, 30.5816955 ] } },
{ "type": "Feature", "properties": { "osm_id": "1886999692", "code": 5621, "fclass": "bus_stop", "name": "前进一路六渡桥站" }, "geometry": { "type": "Point", "coordinates": [ 114.2786638, 30.5782785 ] } },
{ "type": "Feature", "properties": { "osm_id": "1886999695", "code": 5621, "fclass": "bus_stop", "name": "友谊路中山大道口站" }, "geometry": { "type": "Point", "coordinates": [ 114.2759043, 30.5770088 ] } },
{ "type": "Feature", "properties": { "osm_id": "1886999698", "code": 5621, "fclass": "bus_stop", "name": "胜利街六合路站" }, "geometry": { "type": "Point", "coordinates": [ 114.3025289, 30.60327 ] } },
{ "type": "Feature", "properties": { "osm_id": "1886999701", "code": 5621, "fclass": "bus_stop", "name": "胜利街车站路站" }, "geometry": { "type": "Point", "coordinates": [ 114.2949398, 30.5922745 ] } },
{ "type": "Feature", "properties": { "osm_id": "1886999706", "code": 5621, "fclass": "bus_stop", "name": "胜利街一元路站" }, "geometry": { "type": "Point", "coordinates": [ 114.2975692, 30.5951582 ] } },
{ "type": "Feature", "properties": { "osm_id": "1886999708", "code": 5621, "fclass": "bus_stop", "name": "胜利街张自忠路站" }, "geometry": { "type": "Point", "coordinates": [ 114.3041995, 30.6061847 ] } },
{ "type": "Feature", "properties": { "osm_id": "1886999711", "code": 5621, "fclass": "bus_stop", "name": "解放大道同济医院站" }, "geometry": { "type": "Point", "coordinates": [ 114.2542646, 30.5801532 ] } },
{ "type": "Feature", "properties": { "osm_id": "1886999714", "code": 5621, "fclass": "bus_stop", "name": "沿江大道山海关路站" }, "geometry": { "type": "Point", "coordinates": [ 114.3059139, 30.6045236 ] } },
{ "type": "Feature", "properties": { "osm_id": "1887011827", "code": 5621, "fclass": "bus_stop", "name": "京汉大道友谊路站" }, "geometry": { "type": "Point", "coordinates": [ 114.2713501, 30.5827719 ] } },
{ "type": "Feature", "properties": { "osm_id": "1887011833", "code": 5621, "fclass": "bus_stop", "name": "京汉大道武商路站" }, "geometry": { "type": "Point", "coordinates": [ 114.2647055, 30.5799607 ] } },
{ "type": "Feature", "properties": { "osm_id": "1887919659", "code": 5622, "fclass": "bus_station", "name": "青年路客运站" }, "geometry": { "type": "Point", "coordinates": [ 114.2599434, 30.5883151 ] } },
{ "type": "Feature", "properties": { "osm_id": "1887922176", "code": 5601, "fclass": "railway_station", "name": "范湖" }, "geometry": { "type": "Point", "coordinates": [ 114.2553496, 30.6087283 ] } },
{ "type": "Feature", "properties": { "osm_id": "1887922177", "code": 5601, "fclass": "railway_station", "name": "中山公园站" }, "geometry": { "type": "Point", "coordinates": [ 114.2674512, 30.5848763 ] } },
{ "type": "Feature", "properties": { "osm_id": "2067995725", "code": 5601, "fclass": "railway_station", "name": "螃蟹岬" }, "geometry": { "type": "Point", "coordinates": [ 114.3115215, 30.5560066 ] } },
{ "type": "Feature", "properties": { "osm_id": "2067995726", "code": 5601, "fclass": "railway_station", "name": "小龟山" }, "geometry": { "type": "Point", "coordinates": [ 114.3213921, 30.5534936 ] } },
{ "type": "Feature", "properties": { "osm_id": "2067995727", "code": 5601, "fclass": "railway_station", "name": "积玉桥" }, "geometry": { "type": "Point", "coordinates": [ 114.3033129, 30.5632774 ] } },
{ "type": "Feature", "properties": { "osm_id": "2121217833", "code": 5601, "fclass": "railway_station", "name": "常青花园" }, "geometry": { "type": "Point", "coordinates": [ 114.2371987, 30.6430324 ] } },
{ "type": "Feature", "properties": { "osm_id": "2121217834", "code": 5601, "fclass": "railway_station", "name": "金银潭" }, "geometry": { "type": "Point", "coordinates": [ 114.2378129, 30.652138 ] } },
{ "type": "Feature", "properties": { "osm_id": "2134350576", "code": 5601, "fclass": "railway_station", "name": "洪山广场" }, "geometry": { "type": "Point", "coordinates": [ 114.3311474, 30.5479527 ] } },
{ "type": "Feature", "properties": { "osm_id": "2134350577", "code": 5601, "fclass": "railway_station", "name": "梅苑小区" }, "geometry": { "type": "Point", "coordinates": [ 114.3206331, 30.5333621 ] } },
{ "type": "Feature", "properties": { "osm_id": "2134350578", "code": 5601, "fclass": "railway_station", "name": "东亭" }, "geometry": { "type": "Point", "coordinates": [ 114.3500087, 30.5725364 ] } },
{ "type": "Feature", "properties": { "osm_id": "2134350579", "code": 5601, "fclass": "railway_station", "name": "铁机村" }, "geometry": { "type": "Point", "coordinates": [ 114.363763, 30.5863361 ] } },
{ "type": "Feature", "properties": { "osm_id": "2134350580", "code": 5601, "fclass": "railway_station", "name": "武昌火车站" }, "geometry": { "type": "Point", "coordinates": [ 114.3115565, 30.533131 ] } },
{ "type": "Feature", "properties": { "osm_id": "2134350581", "code": 5601, "fclass": "railway_station", "name": "青鱼嘴" }, "geometry": { "type": "Point", "coordinates": [ 114.343507, 30.5651832 ] } },
{ "type": "Feature", "properties": { "osm_id": "2134350582", "code": 5601, "fclass": "railway_station", "name": "岳家嘴" }, "geometry": { "type": "Point", "coordinates": [ 114.3562636, 30.5792703 ] } },
{ "type": "Feature", "properties": { "osm_id": "2134350583", "code": 5601, "fclass": "railway_station", "name": "罗家港" }, "geometry": { "type": "Point", "coordinates": [ 114.3661132, 30.5947687 ] } },
{ "type": "Feature", "properties": { "osm_id": "2134350584", "code": 5601, "fclass": "railway_station", "name": "周家大湾" }, "geometry": { "type": "Point", "coordinates": [ 114.3357501, 30.5562311 ] } },
{ "type": "Feature", "properties": { "osm_id": "2134350585", "code": 5601, "fclass": "railway_station", "name": "工业路" }, "geometry": { "type": "Point", "coordinates": [ 114.3835368, 30.6074202 ] } },
{ "type": "Feature", "properties": { "osm_id": "2134350587", "code": 5601, "fclass": "railway_station", "name": "杨春湖" }, "geometry": { "type": "Point", "coordinates": [ 114.4107553, 30.6075121 ] } },
{ "type": "Feature", "properties": { "osm_id": "2134350590", "code": 5601, "fclass": "railway_station", "name": "工业四路" }, "geometry": { "type": "Point", "coordinates": [ 114.4000587, 30.6102176 ] } },
{ "type": "Feature", "properties": { "osm_id": "2134350592", "code": 5601, "fclass": "railway_station", "name": "园林路" }, "geometry": { "type": "Point", "coordinates": [ 114.3730864, 30.6027195 ] } },
{ "type": "Feature", "properties": { "osm_id": "2283664273", "code": 5601, "fclass": "railway_station", "name": "光谷广场站" }, "geometry": { "type": "Point", "coordinates": [ 114.3915909, 30.5071663 ] } },
{ "type": "Feature", "properties": { "osm_id": "2283664274", "code": 5601, "fclass": "railway_station", "name": "光谷广场站" }, "geometry": { "type": "Point", "coordinates": [ 114.3915519, 30.5073657 ] } },
{ "type": "Feature", "properties": { "osm_id": "2283664278", "code": 5601, "fclass": "railway_station", "name": "宝通寺站" }, "geometry": { "type": "Point", "coordinates": [ 114.3350379, 30.5328583 ] } },
{ "type": "Feature", "properties": { "osm_id": "2283664282", "code": 5601, "fclass": "railway_station", "name": "杨家湾站" }, "geometry": { "type": "Point", "coordinates": [ 114.3784937, 30.5065104 ] } },
{ "type": "Feature", "properties": { "osm_id": "2283664283", "code": 5601, "fclass": "railway_station", "name": "杨家湾站" }, "geometry": { "type": "Point", "coordinates": [ 114.3785016, 30.5067125 ] } },
{ "type": "Feature", "properties": { "osm_id": "2383219703", "code": 5601, "fclass": "railway_station", "name": "长丰" }, "geometry": { "type": "Point", "coordinates": [ 114.1919064, 30.6199295 ] } },
{ "type": "Feature", "properties": { "osm_id": "2389724703", "code": 5622, "fclass": "bus_station", "name": "武昌火车站公交场站" }, "geometry": { "type": "Point", "coordinates": [ 114.3094233, 30.5326602 ] } },
{ "type": "Feature", "properties": { "osm_id": "2389724813", "code": 5641, "fclass": "taxi", "name": null }, "geometry": { "type": "Point", "coordinates": [ 114.3141962, 30.5307087 ] } },
{ "type": "Feature", "properties": { "osm_id": "2389724868", "code": 5641, "fclass": "taxi", "name": null }, "geometry": { "type": "Point", "coordinates": [ 114.3118535, 30.5319393 ] } },
{ "type": "Feature", "properties": { "osm_id": "2389850950", "code": 5621, "fclass": "bus_stop", "name": "南安街站" }, "geometry": { "type": "Point", "coordinates": [ 114.3138155, 30.5261909 ] } },
{ "type": "Feature", "properties": { "osm_id": "2389851673", "code": 5621, "fclass": "bus_stop", "name": "雄楚大道井岗村站" }, "geometry": { "type": "Point", "coordinates": [ 114.31154, 30.5238761 ] } },
{ "type": "Feature", "properties": { "osm_id": "2389851674", "code": 5621, "fclass": "bus_stop", "name": "雄楚大道井岗村站" }, "geometry": { "type": "Point", "coordinates": [ 114.3117063, 30.5241941 ] } },
{ "type": "Feature", "properties": { "osm_id": "2389851675", "code": 5621, "fclass": "bus_stop", "name": "静安路城市公园站" }, "geometry": { "type": "Point", "coordinates": [ 114.3162792, 30.527702 ] } },
{ "type": "Feature", "properties": { "osm_id": "2397109510", "code": 5601, "fclass": "railway_station", "name": "乌龙泉" }, "geometry": { "type": "Point", "coordinates": [ 114.3253278, 30.2556266 ] } },
{ "type": "Feature", "properties": { "osm_id": "2397109511", "code": 5601, "fclass": "railway_station", "name": "土地堂" }, "geometry": { "type": "Point", "coordinates": [ 114.3223858, 30.2042853 ] } },
{ "type": "Feature", "properties": { "osm_id": "2397254497", "code": 5621, "fclass": "bus_stop", "name": "白沙四路凌吴墩站" }, "geometry": { "type": "Point", "coordinates": [ 114.2693127, 30.4784369 ] } },
{ "type": "Feature", "properties": { "osm_id": "2397254503", "code": 5621, "fclass": "bus_stop", "name": "白沙四路凌吴墩站" }, "geometry": { "type": "Point", "coordinates": [ 114.2692628, 30.478917 ] } },
{ "type": "Feature", "properties": { "osm_id": "2397258148", "code": 5621, "fclass": "bus_stop", "name": "青菱城市花园站" }, "geometry": { "type": "Point", "coordinates": [ 114.2710325, 30.4755609 ] } },
{ "type": "Feature", "properties": { "osm_id": "2397258151", "code": 5621, "fclass": "bus_stop", "name": "青菱城市花园站" }, "geometry": { "type": "Point", "coordinates": [ 114.2710135, 30.4759019 ] } },
{ "type": "Feature", "properties": { "osm_id": "2397289915", "code": 5621, "fclass": "bus_stop", "name": "白沙洲大道凌吴墩站" }, "geometry": { "type": "Point", "coordinates": [ 114.2672076, 30.4780856 ] } },
{ "type": "Feature", "properties": { "osm_id": "2397289916", "code": 5621, "fclass": "bus_stop", "name": "白沙洲大道凌吴墩站" }, "geometry": { "type": "Point", "coordinates": [ 114.2680594, 30.4783618 ] } },
{ "type": "Feature", "properties": { "osm_id": "2398267577", "code": 5621, "fclass": "bus_stop", "name": "白沙洲大道张家湾站" }, "geometry": { "type": "Point", "coordinates": [ 114.2775723, 30.4926325 ] } },
{ "type": "Feature", "properties": { "osm_id": "2398267578", "code": 5621, "fclass": "bus_stop", "name": "白沙洲大道张家湾站" }, "geometry": { "type": "Point", "coordinates": [ 114.2772997, 30.492967 ] } },
{ "type": "Feature", "properties": { "osm_id": "2398267579", "code": 5621, "fclass": "bus_stop", "name": "白沙洲大道青菱乡站" }, "geometry": { "type": "Point", "coordinates": [ 114.271506, 30.4842335 ] } },
{ "type": "Feature", "properties": { "osm_id": "2398267580", "code": 5621, "fclass": "bus_stop", "name": "白沙洲大道青菱乡站" }, "geometry": { "type": "Point", "coordinates": [ 114.2719965, 30.4842412 ] } },
{ "type": "Feature", "properties": { "osm_id": "2398348757", "code": 5621, "fclass": "bus_stop", "name": "鹦鹉大道古琴台站" }, "geometry": { "type": "Point", "coordinates": [ 114.2602892, 30.5580436 ] } },
{ "type": "Feature", "properties": { "osm_id": "2398348758", "code": 5621, "fclass": "bus_stop", "name": "鹦鹉大道古琴台站" }, "geometry": { "type": "Point", "coordinates": [ 114.2612438, 30.5597647 ] } },
{ "type": "Feature", "properties": { "osm_id": "2398938450", "code": 5621, "fclass": "bus_stop", "name": "卓刀泉南路方家嘴站" }, "geometry": { "type": "Point", "coordinates": [ 114.3602164, 30.5053631 ] } },
{ "type": "Feature", "properties": { "osm_id": "2398938451", "code": 5621, "fclass": "bus_stop", "name": "卓刀泉南路方家嘴站" }, "geometry": { "type": "Point", "coordinates": [ 114.3600523, 30.5053815 ] } },
{ "type": "Feature", "properties": { "osm_id": "2398938452", "code": 5621, "fclass": "bus_stop", "name": "卓刀泉南路虎泉站" }, "geometry": { "type": "Point", "coordinates": [ 114.3624095, 30.516011 ] } },
{ "type": "Feature", "properties": { "osm_id": "2398938453", "code": 5621, "fclass": "bus_stop", "name": "卓刀泉南路虎泉站" }, "geometry": { "type": "Point", "coordinates": [ 114.3624045, 30.517755 ] } },
{ "type": "Feature", "properties": { "osm_id": "2398938454", "code": 5621, "fclass": "bus_stop", "name": "卓刀泉南路陈家湾站" }, "geometry": { "type": "Point", "coordinates": [ 114.3612447, 30.5115606 ] } },
{ "type": "Feature", "properties": { "osm_id": "2398938455", "code": 5621, "fclass": "bus_stop", "name": "卓刀泉南路陈家湾站" }, "geometry": { "type": "Point", "coordinates": [ 114.3615599, 30.5118277 ] } },
{ "type": "Feature", "properties": { "osm_id": "2398938456", "code": 5621, "fclass": "bus_stop", "name": "南安街站" }, "geometry": { "type": "Point", "coordinates": [ 114.3137694, 30.5263721 ] } },
{ "type": "Feature", "properties": { "osm_id": "2398938457", "code": 5621, "fclass": "bus_stop", "name": "文安路丁字桥路口站" }, "geometry": { "type": "Point", "coordinates": [ 114.3265597, 30.5325531 ] } },
{ "type": "Feature", "properties": { "osm_id": "2398938458", "code": 5621, "fclass": "bus_stop", "name": "文安路丁字桥路口站" }, "geometry": { "type": "Point", "coordinates": [ 114.3264277, 30.532805 ] } },
{ "type": "Feature", "properties": { "osm_id": "2398938459", "code": 5621, "fclass": "bus_stop", "name": "文安路站" }, "geometry": { "type": "Point", "coordinates": [ 114.3227553, 30.5330445 ] } },
{ "type": "Feature", "properties": { "osm_id": "2398938460", "code": 5621, "fclass": "bus_stop", "name": "文安路站" }, "geometry": { "type": "Point", "coordinates": [ 114.3224665, 30.5332226 ] } },
{ "type": "Feature", "properties": { "osm_id": "2398938461", "code": 5621, "fclass": "bus_stop", "name": "武珞路丁字桥站" }, "geometry": { "type": "Point", "coordinates": [ 114.3296337, 30.5349479 ] } },
{ "type": "Feature", "properties": { "osm_id": "2398938463", "code": 5621, "fclass": "bus_stop", "name": "武珞路洪山站" }, "geometry": { "type": "Point", "coordinates": [ 114.339207, 30.531668 ] } },
{ "type": "Feature", "properties": { "osm_id": "2398938465", "code": 5621, "fclass": "bus_stop", "name": "武珞路街道口站" }, "geometry": { "type": "Point", "coordinates": [ 114.3419595, 30.5304887 ] } },
{ "type": "Feature", "properties": { "osm_id": "2398938466", "code": 5621, "fclass": "bus_stop", "name": "武珞路街道口站" }, "geometry": { "type": "Point", "coordinates": [ 114.3417099, 30.5309033 ] } },
{ "type": "Feature", "properties": { "osm_id": "2398938467", "code": 5621, "fclass": "bus_stop", "name": "珞喻路卓刀泉站" }, "geometry": { "type": "Point", "coordinates": [ 114.3623541, 30.5220573 ] } },
{ "type": "Feature", "properties": { "osm_id": "2398938468", "code": 5621, "fclass": "bus_stop", "name": "珞喻路卓刀泉站" }, "geometry": { "type": "Point", "coordinates": [ 114.3612452, 30.5232213 ] } },
{ "type": "Feature", "properties": { "osm_id": "2398938469", "code": 5621, "fclass": "bus_stop", "name": "珞喻路广埠屯站" }, "geometry": { "type": "Point", "coordinates": [ 114.3587425, 30.5250758 ] } },